Unnamed: 0,price,type,address,url,agent_url,postcode,full_postcode,number_bedrooms,search_date,property_type,bedrooms,bathrooms,size_square_meters,new_address,latitude,longitude
31,4495000,6 bedroom detached house for sale,"Greenoak Way, London, SW19 5EN",http://www.rightmove.co.uk/properties/86185473#/?channel=RES_BUY,http://www.rightmove.co.uk/estate-agents/agent/Fine-and-Country/Wimbledon-256826.html,SW19,SW19 5EN,6.0,2023-06-26 09:35:18.449125,Detached,6.0,5.0,456.0,"Greenoak Way, London",51.4330334,-0.2234997
39,4000000,5 bedroom detached house for sale,"Atkinson Close, London, SW20",http://www.rightmove.co.uk/properties/128232299#/?channel=RES_BUY,http://www.rightmove.co.uk/estate-agents/agent/SJW-Sales/London-251108.html,SW20,,5.0,2023-06-26 09:35:18.449125,Detached,5.0,6.0,376.0,"Atkinson Close, London",51.3576282,0.0958704
68,2585000,5 bedroom house for sale,"Marryat Place, Wimbledon",http://www.rightmove.co.uk/properties/131215250#/?channel=RES_BUY,http://www.rightmove.co.uk/estate-agents/agent/andrew-scott-robertson/Wimbledon-Village-135596.html,,,5.0,2023-06-26 09:35:18.449125,House,5.0,4.0,253.0,"Marryat Place, Wimbledon",51.4303472,-0.2147783
76,2250000,6 bedroom semi-detached house for sale,"Pepys Road, West Wimbledon",http://www.rightmove.co.uk/properties/134650949#/?channel=RES_BUY,http://www.rightmove.co.uk/estate-agents/agent/eXp-UK/London-238265.html,,,6.0,2023-06-26 09:35:18.449125,Semi-Detached,6.0,2.0,243.0,"Pepys Road, West Wimbledon",51.4098713,-0.2281739
105,1800000,6 bedroom house for sale,"Kenilworth Avenue, Wimbledon",http://www.rightmove.co.uk/properties/135620021#/?channel=RES_BUY,http://www.rightmove.co.uk/estate-agents/agent/andrew-scott-robertson/Wimbledon-Village-135596.html,,,6.0,2023-06-26 09:35:18.449125,House,6.0,3.0,202.0,"Kenilworth Avenue, Wimbledon",51.4296762,-0.1998537
118,1650000,3 bedroom flat for sale,"Edge Hill, Wimbledon, London, SW19",http://www.rightmove.co.uk/properties/128930258#/?channel=RES_BUY,http://www.rightmove.co.uk/estate-agents/agent/Foxtons/Wimbledon-15975.html,SW19,,3.0,2023-06-26 09:35:18.449125,Flat,3.0,2.0,189.0,"Edge Hill, Wimbledon",51.4177001,-0.2209731
120,1600000,5 bedroom end of terrace house for sale,"Crescent Gardens, Wimbledon Park, London, SW19",http://www.rightmove.co.uk/properties/134959052#/?channel=RES_BUY,http://www.rightmove.co.uk/estate-agents/agent/Foxtons/Earlsfield-84859.html,SW19,,5.0,2023-06-26 09:35:18.449125,End of Terrace,5.0,2.0,217.0,"Crescent Gardens, Wimbledon Park",51.4344116,-0.19685
125,660000,4 bedroom end of terrace house for sale,"Bordesley Road, Morden",http://www.rightmove.co.uk/properties/133016978#/?channel=RES_BUY,http://www.rightmove.co.uk/estate-agents/agent/Halls-and-May/Putney-246959.html,,,4.0,2023-06-26 09:35:18.449125,End of Terrace,4.0,2.0,116.0,"Bordesley Road, Morden",51.4003654,-0.1930721
126,1595000,4 bedroom town house for sale,"Pine Grove, Wimbledon",http://www.rightmove.co.uk/properties/129298733#/?channel=RES_BUY,http://www.rightmove.co.uk/estate-agents/agent/andrew-scott-robertson/Wimbledon-Village-135596.html,,,4.0,2023-06-26 09:35:18.449125,Town House,4.0,2.0,144.0,"Pine Grove, Wimbledon",51.4259441,-0.2095126
128,1590000,3 bedroom flat for sale,"Atkinson Close, Wimbledon, LONDON, SW20",http://www.rightmove.co.uk/properties/136188020#/?channel=RES_BUY,http://www.rightmove.co.uk/estate-agents/agent/Foxtons/Wimbledon-15975.html,SW20,,3.0,2023-06-26 09:35:18.449125,Flat,3.0,3.0,133.0,"Atkinson Close, Wimbledon",51.4181917,-0.2396665
129,1590000,3 bedroom flat for sale,"Atkinson Close, Wimbledon",http://www.rightmove.co.uk/properties/135329633#/?channel=RES_BUY,http://www.rightmove.co.uk/estate-agents/agent/andrew-scott-robertson/Wimbledon-Village-135596.html,,,3.0,2023-06-26 09:35:18.449125,Flat,3.0,3.0,133.0,"Atkinson Close, Wimbledon",51.4181917,-0.2396665
135,1500000,5 bedroom house for sale,"Lansdowne Road, West Wimbledon, London, SW20",http://www.rightmove.co.uk/properties/132598937#/?channel=RES_BUY,http://www.rightmove.co.uk/estate-agents/agent/Foxtons/Wimbledon-15975.html,SW20,,5.0,2023-06-26 09:35:18.449125,House,5.0,2.0,170.0,"Lansdowne Road, West Wimbledon",,
136,1500000,4 bedroom house for sale,"Courthope Villas, Wimbledon, London, SW19",http://www.rightmove.co.uk/properties/136410152#/?channel=RES_BUY,http://www.rightmove.co.uk/estate-agents/agent/Foxtons/Wimbledon-15975.html,SW19,,4.0,2023-06-26 09:35:18.449125,House,4.0,2.0,176.0,"Courthope Villas, Wimbledon",51.4186999,-0.2108024
137,1495000,4 bedroom house for sale,"Lake Road, Wimbledon, London, SW19",http://www.rightmove.co.uk/properties/133265840#/?channel=RES_BUY,http://www.rightmove.co.uk/estate-agents/agent/Foxtons/Wimbledon-15975.html,SW19,,4.0,2023-06-26 09:35:18.449125,House,4.0,1.0,130.0,"Lake Road, Wimbledon",51.4274993,-0.2056721
161,1275000,5 bedroom terraced house for sale,"Melrose Avenue, London",http://www.rightmove.co.uk/properties/135701990#/?channel=RES_BUY,http://www.rightmove.co.uk/estate-agents/agent/Loney-Miller-Limited/London-187115.html,,,5.0,2023-06-26 09:35:18.449125,Terraced,5.0,2.0,168.0,"Melrose Avenue, London",51.5365966,-0.3602734
163,1260000,3 bedroom flat for sale,"Arthur Road, Wimbledon Park, London, SW19",http://www.rightmove.co.uk/properties/132300902#/?channel=RES_BUY,http://www.rightmove.co.uk/estate-agents/agent/Foxtons/Wimbledon-15975.html,SW19,,3.0,2023-06-26 09:35:18.449125,Flat,3.0,2.0,138.0,"Arthur Road, Wimbledon Park",51.4340563,-0.1990432
169,1250000,3 bedroom house for sale,"Thaxted Place, Wimbledon",http://www.rightmove.co.uk/properties/135920015#/?channel=RES_BUY,http://www.rightmove.co.uk/estate-agents/agent/andrew-scott-robertson/Wimbledon-Village-135596.html,,,3.0,2023-06-26 09:35:18.449125,House,3.0,3.0,123.0,"Thaxted Place, Wimbledon",51.4170666,-0.223943
181,1200000,4 bedroom house for sale,Havana Road,http://www.rightmove.co.uk/properties/133402271#/?channel=RES_BUY,http://www.rightmove.co.uk/estate-agents/agent/Loney-Miller-Limited/London-187115.html,,,4.0,2023-06-26 09:35:18.449125,House,4.0,2.0,131.0,Havana Road,51.438725,-0.1958536
183,1200000,3 bedroom semi-detached house for sale,"Strachan Place, Wimbledon Village, London, SW19",http://www.rightmove.co.uk/properties/127802288#/?channel=RES_BUY,http://www.rightmove.co.uk/estate-agents/agent/Foxtons/Wimbledon-15975.html,SW19,,3.0,2023-06-26 09:35:18.449125,Semi-Detached,3.0,2.0,124.0,"Strachan Place, Wimbledon Village",51.4210761,-0.2281278
197,1150000,5 bedroom semi-detached house for sale,"Keswick Avenue, Wimbledon",http://www.rightmove.co.uk/properties/132902450#/?channel=RES_BUY,http://www.rightmove.co.uk/estate-agents/agent/andrew-scott-robertson/Wimbledon-Village-135596.html,,,5.0,2023-06-26 09:35:18.449125,Semi-Detached,5.0,2.0,147.0,"Keswick Avenue, Wimbledon",51.4079706,-0.2014076
204,1150000,2 bedroom flat for sale,"Chambers Park Hill, Wimbledon, London, SW20",http://www.rightmove.co.uk/properties/134087048#/?channel=RES_BUY,http://www.rightmove.co.uk/estate-agents/agent/Foxtons/Wimbledon-15975.html,SW20,,2.0,2023-06-26 09:35:18.449125,Flat,2.0,2.0,89.0,"Chambers Park Hill, Wimbledon",51.4178144,-0.2381863
207,1150000,4 bedroom terraced house for sale,"Panmuir Road, Cottenham Park, London, SW20",http://www.rightmove.co.uk/properties/129115580#/?channel=RES_BUY,http://www.rightmove.co.uk/estate-agents/agent/Foxtons/Wimbledon-15975.html,SW20,,4.0,2023-06-26 09:35:18.449125,Terraced,4.0,3.0,161.0,"Panmuir Road, Cottenham Park",51.4130453,-0.234857
215,1100000,3 bedroom house for sale,"Braemar Avenue, London",http://www.rightmove.co.uk/properties/136254005#/?channel=RES_BUY,http://www.rightmove.co.uk/estate-agents/agent/Loney-Miller-Limited/London-187115.html,,,3.0,2023-06-26 09:35:18.449125,House,3.0,1.0,97.0,"Braemar Avenue, London",51.3468619,-0.0998355
234,1000000,2 bedroom house for sale,"Anson Mews, South Wimbledon, London, SW19",http://www.rightmove.co.uk/properties/86181885#/?channel=RES_BUY,http://www.rightmove.co.uk/estate-agents/agent/Foxtons/Wimbledon-15975.html,SW19,,2.0,2023-06-26 09:35:18.449125,House,2.0,2.0,106.0,"Anson Mews, South Wimbledon",,
236,1000000,4 bedroom semi-detached house for sale,"Dundonald Road, London, SW19",http://www.rightmove.co.uk/properties/136369400#/?channel=RES_BUY,http://www.rightmove.co.uk/estate-agents/agent/London-Property-Guru/London-97850.html,SW19,,4.0,2023-06-26 09:35:18.449125,Semi-Detached,4.0,3.0,124.0,"Dundonald Road, London",51.4174546,-0.207536
245,975000,4 bedroom semi-detached house for sale,"Grand Drive, Raynes Park, London, SW20",http://www.rightmove.co.uk/properties/134653766#/?channel=RES_BUY,http://www.rightmove.co.uk/estate-agents/agent/Foxtons/New-Malden-149153.html,SW20,,4.0,2023-06-26 09:35:18.449125,Semi-Detached,4.0,2.0,145.0,"Grand Drive, Raynes Park",51.4070018,-0.2294545
251,975000,3 bedroom maisonette for sale,"Raymond Road, Wimbledon",http://www.rightmove.co.uk/properties/135459077#/?channel=RES_BUY,http://www.rightmove.co.uk/estate-agents/agent/Elizabeth-Wightwick-Bespoke-Lettings/Wimbledon-Village-177239.html,,,3.0,2023-06-26 09:35:18.449125,Maisonette,3.0,2.0,119.0,"Raymond Road, Wimbledon",51.4209055,-0.2109909
255,975000,4 bedroom link detached house for sale,"Abbott Avenue,  Raynes Park, SW20",http://www.rightmove.co.uk/properties/135291095#/?channel=RES_BUY,http://www.rightmove.co.uk/estate-agents/agent/Greenfield-and-Company/Ewell-58022.html,SW20,,4.0,2023-06-26 09:35:18.449125,Link Detached House,4.0,2.0,166.0,"Abbott Avenue,  Raynes Park",51.4113889,-0.2206129
258,950000,3 bedroom apartment for sale,"Raymond Road, Wimbledon, SW19",http://www.rightmove.co.uk/properties/136421789#/?channel=RES_BUY,http://www.rightmove.co.uk/estate-agents/agent/Lucie-White-and-Company/London---Sales-225416.html,SW19,,3.0,2023-06-26 09:35:18.449125,Apartment,3.0,2.0,110.0,"Raymond Road, Wimbledon",51.4209055,-0.2109909
264,950000,4 bedroom terraced house for sale,"Cherrywood Lane, Morden, SM4",http://www.rightmove.co.uk/properties/135915080#/?channel=RES_BUY,http://www.rightmove.co.uk/estate-agents/agent/Foxtons/Wimbledon-15975.html,SM4,,4.0,2023-06-26 09:35:18.449125,Terraced,4.0,2.0,151.0,"Cherrywood Lane, Morden",51.3986309,-0.2148853
269,925000,3 bedroom house for sale,"Normanton Avenue, London",http://www.rightmove.co.uk/properties/134902814#/?channel=RES_BUY,http://www.rightmove.co.uk/estate-agents/agent/Loney-Miller-Limited/London-187115.html,,,3.0,2023-06-26 09:35:18.449125,House,3.0,1.0,92.0,"Normanton Avenue, London",51.4390741,-0.2016843
272,925000,3 bedroom maisonette for sale,"Kingston Road, Wimbledon, London, SW19",http://www.rightmove.co.uk/properties/85161237#/?channel=RES_BUY,http://www.rightmove.co.uk/estate-agents/agent/Foxtons/Wimbledon-15975.html,SW19,,3.0,2023-06-26 09:35:18.449125,Maisonette,3.0,2.0,134.0,"Kingston Road, Wimbledon",51.4156177,-0.1927279
277,900000,5 bedroom end of terrace house for sale,"Liberty Avenue, Colliers Wood, London, SW19",http://www.rightmove.co.uk/properties/132598790#/?channel=RES_BUY,http://www.rightmove.co.uk/estate-agents/agent/Foxtons/Tooting-111050.html,SW19,,5.0,2023-06-26 09:35:18.449125,End of Terrace,5.0,4.0,138.0,"Liberty Avenue, Colliers Wood",,
283,900000,3 bedroom terraced house for sale,"Kingston Road, South Wimbledon, London, SW19",http://www.rightmove.co.uk/properties/133073030#/?channel=RES_BUY,http://www.rightmove.co.uk/estate-agents/agent/Foxtons/Wimbledon-15975.html,SW19,,3.0,2023-06-26 09:35:18.449125,Terraced,3.0,1.0,95.0,"Kingston Road, South Wimbledon",51.415138,-0.199771
285,900000,2 bedroom flat for sale,"Wimbledon Hill Road, Wimbledon",http://www.rightmove.co.uk/properties/134812886#/?channel=RES_BUY,http://www.rightmove.co.uk/estate-agents/agent/Dexters/Wimbledon-84878.html,,,2.0,2023-06-26 09:35:18.449125,Flat,2.0,2.0,97.0,"Wimbledon Hill Road, Wimbledon",51.4231726,-0.2102176
290,900000,3 bedroom flat for sale,"St Aubyns Court, Raymond Road, Wimbledon",http://www.rightmove.co.uk/properties/134630489#/?channel=RES_BUY,http://www.rightmove.co.uk/estate-agents/agent/andrew-scott-robertson/Wimbledon-Village-135596.html,,,3.0,2023-06-26 09:35:18.449125,Flat,3.0,1.0,114.0,"St Aubyns Court, Raymond Road",,
291,900000,5 bedroom terraced house for sale,"Crossway, Raynes Park, London, SW20",http://www.rightmove.co.uk/properties/128608403#/?channel=RES_BUY,http://www.rightmove.co.uk/estate-agents/agent/Foxtons/New-Malden-149153.html,SW20,,5.0,2023-06-26 09:35:18.449125,Terraced,5.0,3.0,154.0,"Crossway, Raynes Park",51.3984689,-0.2321693
302,895000,2 bedroom flat for sale,"Calonne Road, Wimbledon Common, London, SW19",http://www.rightmove.co.uk/properties/133904645#/?channel=RES_BUY,http://www.rightmove.co.uk/estate-agents/agent/Foxtons/Wimbledon-15975.html,SW19,,2.0,2023-06-26 09:35:18.449125,Flat,2.0,2.0,104.0,"Calonne Road, Wimbledon Common",,
354,825000,5 bedroom maisonette for sale,"Hartfield Road, Wimbledon, London, SW19",http://www.rightmove.co.uk/properties/134639243#/?channel=RES_BUY,http://www.rightmove.co.uk/estate-agents/agent/Foxtons/Wimbledon-15975.html,SW19,,5.0,2023-06-26 09:35:18.449125,Maisonette,5.0,2.0,94.0,"Hartfield Road, Wimbledon",51.4190709,-0.2048091
385,795000,2 bedroom flat for sale,"Lansdowne Road, Wimbledon, London, SW20",http://www.rightmove.co.uk/properties/134442848#/?channel=RES_BUY,http://www.rightmove.co.uk/estate-agents/agent/Foxtons/Wimbledon-15975.html,SW20,,2.0,2023-06-26 09:35:18.449125,Flat,2.0,1.0,92.0,"Lansdowne Road, Wimbledon",51.4174626,-0.2256946
400,660000,4 bedroom end of terrace house for sale,"Bordesley Road, Morden",http://www.rightmove.co.uk/properties/133016978#/?channel=RES_BUY,http://www.rightmove.co.uk/estate-agents/agent/Halls-and-May/Putney-246959.html,,,4.0,2023-06-26 09:35:18.449125,End of Terrace,4.0,2.0,116.0,"Bordesley Road, Morden",51.4003654,-0.1930721
415,750000,4 bedroom end of terrace house for sale,"Byron Avenue, New Malden , KT3 6EZ",http://www.rightmove.co.uk/properties/131999714#/?channel=RES_BUY,http://www.rightmove.co.uk/estate-agents/agent/Hunters/Worcester-Park-142988.html,KT3,KT3 6EZ,4.0,2023-06-26 09:35:18.449125,End of Terrace,4.0,1.0,163.0,"Byron Avenue, New Malden ",,
416,750000,4 bedroom end of terrace house for sale,"Cobham Avenue, New Malden, KT3",http://www.rightmove.co.uk/properties/129363608#/?channel=RES_BUY,http://www.rightmove.co.uk/estate-agents/agent/Foxtons/New-Malden-149153.html,KT3,,4.0,2023-06-26 09:35:18.449125,End of Terrace,4.0,2.0,112.0,"Cobham Avenue, New Malden",,
422,750000,2 bedroom house for sale,"Haydons Road, Wimbledon, London, SW19",http://www.rightmove.co.uk/properties/133833311#/?channel=RES_BUY,http://www.rightmove.co.uk/estate-agents/agent/Foxtons/Wimbledon-15975.html,SW19,,2.0,2023-06-26 09:35:18.449125,House,2.0,1.0,89.0,"Haydons Road, Wimbledon",51.4253627,-0.1883425
427,750000,4 bedroom terraced house for sale,"Park Avenue, Mitcham, CR4",http://www.rightmove.co.uk/properties/136372259#/?channel=RES_BUY,http://www.rightmove.co.uk/estate-agents/agent/Foxtons/Tooting-111050.html,CR4,,4.0,2023-06-26 09:35:18.449125,Terraced,4.0,3.0,149.0,"Park Avenue, Mitcham",51.4159936,-0.1496956
438,750000,3 bedroom end of terrace house for sale,"Elmhurst Avenue, Mitcham, CR4",http://www.rightmove.co.uk/properties/135188108#/?channel=RES_BUY,http://www.rightmove.co.uk/estate-agents/agent/Foxtons/Tooting-111050.html,CR4,,3.0,2023-06-26 09:35:18.449125,End of Terrace,3.0,2.0,105.0,"Elmhurst Avenue, Mitcham",51.414614,-0.1517619
439,750000,3 bedroom terraced house for sale,"High Street Colliers Wood, Colliers Wood, London, SW19",http://www.rightmove.co.uk/properties/133002134#/?channel=RES_BUY,http://www.rightmove.co.uk/estate-agents/agent/Foxtons/Tooting-111050.html,SW19,,3.0,2023-06-26 09:35:18.449125,Terraced,3.0,2.0,109.0,"High Street Colliers Wood, Colliers Wood",51.4185691,-0.177671
442,750000,3 bedroom maisonette for sale,"Graham Road, Wimbledon, London, SW19",http://www.rightmove.co.uk/properties/134103347#/?channel=RES_BUY,http://www.rightmove.co.uk/estate-agents/agent/Foxtons/Wimbledon-15975.html,SW19,,3.0,2023-06-26 09:35:18.449125,Maisonette,3.0,1.0,99.0,"Graham Road, Wimbledon",51.4164064,-0.2045899
458,729999,3 bedroom house for sale,"Ashridge Way, Morden",http://www.rightmove.co.uk/properties/134435918#/?channel=RES_BUY,http://www.rightmove.co.uk/estate-agents/agent/C-James-and-Co/Colliers-Wood-5256.html,,,3.0,2023-06-26 09:35:18.449125,House,3.0,1.0,88.0,"Ashridge Way, Morden",51.3981421,-0.2072483
461,725000,4 bedroom terraced house for sale,"Cranmer Close, Morden",http://www.rightmove.co.uk/properties/135623678#/?channel=RES_BUY,http://www.rightmove.co.uk/estate-agents/agent/The-Personal-Agent/Stoneleigh-27960.html,,,4.0,2023-06-26 09:35:18.449125,Terraced,4.0,2.0,128.0,"Cranmer Close, Morden",51.3899576,-0.2187809
462,725000,4 bedroom terraced house for sale,"Thirsk Road, Tooting, Mitcham, CR4",http://www.rightmove.co.uk/properties/128958203#/?channel=RES_BUY,http://www.rightmove.co.uk/estate-agents/agent/Foxtons/Tooting-111050.html,CR4,,4.0,2023-06-26 09:35:18.449125,Terraced,4.0,2.0,159.0,"Thirsk Road, Tooting",,
477,700000,4 bedroom detached house for sale,"Martin Way, Raynes Park, London, SW20",http://www.rightmove.co.uk/properties/132461909#/?channel=RES_BUY,http://www.rightmove.co.uk/estate-agents/agent/Foxtons/Wimbledon-15975.html,SW20,,4.0,2023-06-26 09:35:18.449125,Detached,4.0,1.0,87.0,"Martin Way, Raynes Park",51.4076318,-0.2191969
483,700000,3 bedroom house for sale,"Cannon Hill Lane, Raynes Park, London, SW20",http://www.rightmove.co.uk/properties/135023639#/?channel=RES_BUY,http://www.rightmove.co.uk/estate-agents/agent/Foxtons/Wimbledon-15975.html,SW20,,3.0,2023-06-26 09:35:18.449125,House,3.0,1.0,92.0,"Cannon Hill Lane, Raynes Park",51.4073885,-0.2114275
488,700000,3 bedroom terraced house for sale,"Western Road, Colliers Wood, London, SW19",http://www.rightmove.co.uk/properties/134099216#/?channel=RES_BUY,http://www.rightmove.co.uk/estate-agents/agent/Foxtons/Tooting-111050.html,SW19,,3.0,2023-06-26 09:35:18.449125,Terraced,3.0,1.0,113.0,"Western Road, Colliers Wood",,
500,1600000,5 bedroom end of terrace house for sale,"Crescent Gardens, Wimbledon Park, London, SW19",http://www.rightmove.co.uk/properties/134959052#/?channel=RES_BUY,http://www.rightmove.co.uk/estate-agents/agent/Foxtons/Earlsfield-84859.html,SW19,,5.0,2023-06-26 09:35:18.449125,End of Terrace,5.0,2.0,217.0,"Crescent Gardens, Wimbledon Park",51.4344116,-0.19685
507,690000,5 bedroom detached house for sale,"Greenwood Road, Mitcham, CR4",http://www.rightmove.co.uk/properties/134797397#/?channel=RES_BUY,http://www.rightmove.co.uk/estate-agents/agent/Foxtons/Norbury-253856.html,CR4,,5.0,2023-06-26 09:35:18.449125,Detached,5.0,2.0,166.0,"Greenwood Road, Mitcham",,
512,680000,4 bedroom terraced house for sale,"Mortlake Drive, Mitcham, Surrey, CR4",http://www.rightmove.co.uk/properties/136388012#/?channel=RES_BUY,http://www.rightmove.co.uk/estate-agents/agent/W-PROPERTY-CONSULTANTS/Richmond-256523.html,CR4,,4.0,2023-06-26 09:35:18.449125,Terraced,4.0,2.0,104.0,"Mortlake Drive, Mitcham",51.4115314,-0.1736464
515,675000,3 bedroom flat for sale,"Haydons Road, Wimbledon, London, SW19",http://www.rightmove.co.uk/properties/136147388#/?channel=RES_BUY,http://www.rightmove.co.uk/estate-agents/agent/Foxtons/Wimbledon-15975.html,SW19,,3.0,2023-06-26 09:35:18.449125,Flat,3.0,2.0,91.0,"Haydons Road, Wimbledon",51.4253627,-0.1883425
538,660000,4 bedroom end of terrace house for sale,"Bordesley Road, Morden",http://www.rightmove.co.uk/properties/133016978#/?channel=RES_BUY,http://www.rightmove.co.uk/estate-agents/agent/Halls-and-May/Putney-246959.html,,,4.0,2023-06-26 09:35:18.449125,End of Terrace,4.0,2.0,116.0,"Bordesley Road, Morden",51.4003654,-0.1930721
548,650000,4 bedroom semi-detached house for sale,"Elmhurst Avenue, Mitcham, CR4",http://www.rightmove.co.uk/properties/134408795#/?channel=RES_BUY,http://www.rightmove.co.uk/estate-agents/agent/Truuli/Croydon-195281.html,CR4,,4.0,2023-06-26 09:35:18.449125,Semi-Detached,4.0,1.0,105.0,"Elmhurst Avenue, Mitcham",51.414614,-0.1517619
553,650000,3 bedroom flat for sale,"Woodside House, Woodside, Wimbledon",http://www.rightmove.co.uk/properties/133716533#/?channel=RES_BUY,http://www.rightmove.co.uk/estate-agents/agent/andrew-scott-robertson/Wimbledon-Village-135596.html,,,3.0,2023-06-26 09:35:18.449125,Flat,3.0,2.0,82.0,"Woodside House, Woodside",51.4325237,-0.6616089
563,650000,4 bedroom end of terrace house for sale,"Baker Lane, Mitcham, CR4",http://www.rightmove.co.uk/properties/130773740#/?channel=RES_BUY,http://www.rightmove.co.uk/estate-agents/agent/Foxtons/Tooting-111050.html,CR4,,4.0,2023-06-26 09:35:18.449125,End of Terrace,4.0,2.0,112.0,"Baker Lane, Mitcham",51.4057517,-0.1594115
566,650000,2 bedroom flat for sale,"Haydon Park Road, Wimbledon",http://www.rightmove.co.uk/properties/132180689#/?channel=RES_BUY,http://www.rightmove.co.uk/estate-agents/agent/Dexters/Wimbledon-84878.html,,,2.0,2023-06-26 09:35:18.449125,Flat,2.0,2.0,83.0,"Haydon Park Road, Wimbledon",51.4266987,-0.194345
567,650000,3 bedroom terraced house for sale,"Wolsey Crescent, Morden",http://www.rightmove.co.uk/properties/135064277#/?channel=RES_BUY,http://www.rightmove.co.uk/estate-agents/agent/Turners/Morden-16319.html,,,3.0,2023-06-26 09:35:18.449125,Terraced,3.0,1.0,106.0,"Wolsey Crescent, Morden",51.3873967,-0.2122368
569,650000,3 bedroom terraced house for sale,"Tramway Path, Mitcham, CR4",http://www.rightmove.co.uk/properties/134238236#/?channel=RES_BUY,http://www.rightmove.co.uk/estate-agents/agent/Foxtons/Tooting-111050.html,CR4,,3.0,2023-06-26 09:35:18.449125,Terraced,3.0,1.0,94.0,"Tramway Path, Mitcham",51.3976669,-0.172783
605,625000,2 bedroom flat for sale,"Home Park Road, Wimbledon",http://www.rightmove.co.uk/properties/134013224#/?channel=RES_BUY,http://www.rightmove.co.uk/estate-agents/agent/andrew-scott-robertson/Wimbledon-Village-135596.html,,,2.0,2023-06-26 09:35:18.449125,Flat,2.0,1.0,64.0,"Home Park Road, Wimbledon",51.433135,-0.199302
607,625000,2 bedroom flat for sale,"The Downs, Wimbledon",http://www.rightmove.co.uk/properties/136050584#/?channel=RES_BUY,http://www.rightmove.co.uk/estate-agents/agent/andrew-scott-robertson/Wimbledon-Village-135596.html,,,2.0,2023-06-26 09:35:18.449125,Flat,2.0,2.0,78.0,"The Downs, Wimbledon",51.4163849,-0.2230471
631,600000,1 bedroom flat for sale,"GFF, 17 Wilton Road, London SW19 2HB",http://www.rightmove.co.uk/properties/136223411#/?channel=RES_BUY,http://www.rightmove.co.uk/estate-agents/agent/Harding-Green/London-181964.html,SW19,SW19 2HB,1.0,2023-06-26 09:35:18.449125,Flat,1.0,1.0,58.0,"GFF, 17 Wilton Road",,
634,600000,4 bedroom semi-detached house for sale,"Farewell Place, Mitcham, CR4",http://www.rightmove.co.uk/properties/134960120#/?channel=RES_BUY,http://www.rightmove.co.uk/estate-agents/agent/Foxtons/Tooting-111050.html,CR4,,4.0,2023-06-26 09:35:18.449125,Semi-Detached,4.0,1.0,101.0,"Farewell Place, Mitcham",51.4106969,-0.1751034
641,600000,4 bedroom terraced house for sale,"Crusoe Road, Mitcham, CR4",http://www.rightmove.co.uk/properties/132898997#/?channel=RES_BUY,http://www.rightmove.co.uk/estate-agents/agent/Foxtons/Tooting-111050.html,CR4,,4.0,2023-06-26 09:35:18.449125,Terraced,4.0,4.0,112.0,"Crusoe Road, Mitcham",51.4171699,-0.1648289
643,600000,2 bedroom flat for sale,"Southey Road, Wimbledon, London, SW19",http://www.rightmove.co.uk/properties/134829164#/?channel=RES_BUY,http://www.rightmove.co.uk/estate-agents/agent/Foxtons/Wimbledon-15975.html,SW19,,2.0,2023-06-26 09:35:18.449125,Flat,2.0,1.0,69.0,"Southey Road, Wimbledon",51.4183125,-0.1976845
648,600000,4 bedroom terraced house for sale,"Windermere Road, Norbury, London, SW16",http://www.rightmove.co.uk/properties/132784226#/?channel=RES_BUY,http://www.rightmove.co.uk/estate-agents/agent/Foxtons/Norbury-253856.html,SW16,,4.0,2023-06-26 09:35:18.449125,Terraced,4.0,2.0,142.0,"Windermere Road, Norbury",,
649,600000,2 bedroom flat for sale,"Arterberry Road, Wimbledon, London, SW20",http://www.rightmove.co.uk/properties/132572540#/?channel=RES_BUY,http://www.rightmove.co.uk/estate-agents/agent/Foxtons/Wimbledon-15975.html,SW20,,2.0,2023-06-26 09:35:18.449125,Flat,2.0,1.0,103.0,"Arterberry Road, Wimbledon",51.4184014,-0.2277369
656,600000,4 bedroom end of terrace house for sale,"Sherwood Park Road, Mitcham, CR4",http://www.rightmove.co.uk/properties/133604387#/?channel=RES_BUY,http://www.rightmove.co.uk/estate-agents/agent/Foxtons/Norbury-253856.html,CR4,,4.0,2023-06-26 09:35:18.449125,End of Terrace,4.0,3.0,162.0,"Sherwood Park Road, Mitcham",51.4007317,-0.145701
660,600000,3 bedroom maisonette for sale,"Haydons Road, Wimbledon, London, SW19",http://www.rightmove.co.uk/properties/134238503#/?channel=RES_BUY,http://www.rightmove.co.uk/estate-agents/agent/Foxtons/Wimbledon-15975.html,SW19,,3.0,2023-06-26 09:35:18.449125,Maisonette,3.0,1.0,105.0,"Haydons Road, Wimbledon",51.4253627,-0.1883425
661,600000,4 bedroom terraced house for sale,"Hassocks Road, SW16, Streatham Vale, London, SW16",http://www.rightmove.co.uk/properties/134906996#/?channel=RES_BUY,http://www.rightmove.co.uk/estate-agents/agent/Foxtons/Norbury-253856.html,SW16,,4.0,2023-06-26 09:35:18.449125,Terraced,4.0,2.0,121.0,"Hassocks Road, SW16",51.4113097,-0.1373099
663,600000,3 bedroom house for sale,"Haynt Walk, Wimbledon, London, SW20",http://www.rightmove.co.uk/properties/131664833#/?channel=RES_BUY,http://www.rightmove.co.uk/estate-agents/agent/Foxtons/Wimbledon-15975.html,SW20,,3.0,2023-06-26 09:35:18.449125,House,3.0,1.0,113.0,"Haynt Walk, Wimbledon",51.4055729,-0.2137412
664,600000,3 bedroom terraced house for sale,"Thurleston Avenue, Morden",http://www.rightmove.co.uk/properties/134784716#/?channel=RES_BUY,http://www.rightmove.co.uk/estate-agents/agent/Turners/Morden-16319.html,,,3.0,2023-06-26 09:35:18.449125,Terraced,3.0,1.0,86.0,"Thurleston Avenue, Morden",51.3969772,-0.2170837
667,599500,2 bedroom apartment for sale,"Kingston Road, Raynes Park, London",http://www.rightmove.co.uk/properties/125111828#/?channel=RES_BUY,http://www.rightmove.co.uk/estate-agents/agent/McCarthy-and-Stone-Resales/Bournemouth-181997.html,,,2.0,2023-06-26 09:35:18.449125,Apartment,2.0,1.0,80.0,"Kingston Road, Raynes Park",51.4097446,-0.2262334
670,595000,3 bedroom terraced house for sale,"Biggin Avenue, Mitcham, CR4",http://www.rightmove.co.uk/properties/136313753#/?channel=RES_BUY,http://www.rightmove.co.uk/estate-agents/agent/Foxtons/Tooting-111050.html,CR4,,3.0,2023-06-26 09:35:18.449125,Terraced,3.0,1.0,92.0,"Biggin Avenue, Mitcham",51.4121038,-0.1657604
682,580000,2 bedroom flat for sale,"Rutherford Court, Colliers Wood, London SW19",http://www.rightmove.co.uk/properties/128867312#/?channel=RES_BUY,http://www.rightmove.co.uk/estate-agents/agent/andrew-scott-robertson/Wimbledon-Village-135596.html,SW19,,2.0,2023-06-26 09:35:18.449125,Flat,2.0,2.0,68.0,"Rutherford Court, Colliers Wood",,
683,580000,4 bedroom maisonette for sale,"Durham Road, Wimbledon",http://www.rightmove.co.uk/properties/124751510#/?channel=RES_BUY,http://www.rightmove.co.uk/estate-agents/agent/Goodfellows/Stonecot-Hill-8966.html,,,4.0,2023-06-26 09:35:18.449125,Maisonette,4.0,2.0,118.0,"Durham Road, Wimbledon",51.4125357,-0.2335721
687,575000,2 bedroom flat for sale,"Lake Close, Wimbledon",http://www.rightmove.co.uk/properties/136490450#/?channel=RES_BUY,http://www.rightmove.co.uk/estate-agents/agent/Cross-and-Prior/Colliers-Wood-109114.html,,,2.0,2023-06-26 09:35:18.449125,Flat,2.0,1.0,71.0,"Lake Close, Wimbledon",,
699,575000,2 bedroom maisonette for sale,"Wycliffe Road, South Park Gardens, London, SW19",http://www.rightmove.co.uk/properties/135915053#/?channel=RES_BUY,,SW19,,2.0,2023-06-26 09:35:18.449125,Maisonette,2.0,1.0,57.0,"Wycliffe Road, South Park Gardens",,
704,570000,3 bedroom terraced house for sale,"Homefield Gardens, Mitcham, CR4",http://www.rightmove.co.uk/properties/132805625#/?channel=RES_BUY,http://www.rightmove.co.uk/estate-agents/agent/Foxtons/Tooting-111050.html,CR4,,3.0,2023-06-26 09:35:18.449125,Terraced,3.0,1.0,135.0,"Homefield Gardens, Mitcham",51.4090883,-0.1819119
716,565000,4 bedroom house for sale,"High Street, Colliers Wood, London",http://www.rightmove.co.uk/properties/134736791#/?channel=RES_BUY,http://www.rightmove.co.uk/estate-agents/agent/C-James-and-Co/Colliers-Wood-5256.html,,,4.0,2023-06-26 09:35:18.449125,House,4.0,1.0,102.0,"High Street, Colliers Wood",51.4182747,-0.1778626
742,550000,2 bedroom flat for sale,"Trinity Road, Wimbledon, London, SW19",http://www.rightmove.co.uk/properties/135170381#/?channel=RES_BUY,http://www.rightmove.co.uk/estate-agents/agent/Foxtons/Wimbledon-15975.html,SW19,,2.0,2023-06-26 09:35:18.449125,Flat,2.0,1.0,58.0,"Trinity Road, Wimbledon",51.4216788,-0.1970192
747,550000,3 bedroom terraced house for sale,"Greenwood Road, Mitcham, CR4",http://www.rightmove.co.uk/properties/135169064#/?channel=RES_BUY,http://www.rightmove.co.uk/estate-agents/agent/Foxtons/Norbury-253856.html,CR4,,3.0,2023-06-26 09:35:18.449125,Terraced,3.0,1.0,92.0,"Greenwood Road, Mitcham",,
748,550000,3 bedroom terraced house for sale,"Dunster Avenue, Morden",http://www.rightmove.co.uk/properties/133001414#/?channel=RES_BUY,http://www.rightmove.co.uk/estate-agents/agent/Hunters/Worcester-Park-142988.html,,,3.0,2023-06-26 09:35:18.449125,Terraced,3.0,2.0,81.0,"Dunster Avenue, Morden",51.3814491,-0.2193752
752,550000,3 bedroom maisonette for sale,"Bruce Road, Tooting, London, CR4",http://www.rightmove.co.uk/properties/135774194#/?channel=RES_BUY,http://www.rightmove.co.uk/estate-agents/agent/Andrews-Estate-Agents/Mitcham-4562.html,CR4,,3.0,2023-06-26 09:35:18.449125,Maisonette,3.0,2.0,100.0,"Bruce Road, Tooting",51.4459105,-0.1657808
760,550000,3 bedroom terraced house for sale,"Rowan Road, Streatham Vale, SW16",http://www.rightmove.co.uk/properties/136495850#/?channel=RES_BUY,http://www.rightmove.co.uk/estate-agents/agent/Dexters/Wimbledon-84878.html,SW16,,3.0,2023-06-26 09:35:18.449125,Terraced,3.0,1.0,102.0,"Rowan Road, Streatham Vale",,
764,545000,3 bedroom terraced house for sale,"Belgrave Walk, Mitcham, CR4",http://www.rightmove.co.uk/properties/131833775#/?channel=RES_BUY,http://www.rightmove.co.uk/estate-agents/agent/eddisonwhite/Merton---Sales-and-Lettings-20183.html,CR4,,3.0,2023-06-26 09:35:18.449125,Terraced,3.0,2.0,80.0,"Belgrave Walk, Mitcham",51.400872,-0.1781763
765,545000,3 bedroom terraced house for sale,"Gorringe Park Avenue, Mitcham, CR4",http://www.rightmove.co.uk/properties/134238242#/?channel=RES_BUY,http://www.rightmove.co.uk/estate-agents/agent/All-in-the-postcodeSW19com/Wimbledon-34619.html,CR4,,3.0,2023-06-26 09:35:18.449125,Terraced,3.0,1.0,92.0,"Gorringe Park Avenue, Mitcham",51.4164346,-0.1580114
776,525000,3 bedroom terraced house for sale,Three Bedroom House in SW16,http://www.rightmove.co.uk/properties/134638040#/?channel=RES_BUY,http://www.rightmove.co.uk/estate-agents/agent/Heaven-Estate-Agents/London-225752.html,SW16,,3.0,2023-06-26 09:35:18.449125,Terraced,3.0,2.0,108.0,Three Bedroom House in SW16,,
799,525000,3 bedroom terraced house for sale,"Gorringe Park Avenue, Mitcham, CR4",http://www.rightmove.co.uk/properties/123490499#/?channel=RES_BUY,http://www.rightmove.co.uk/estate-agents/agent/Foxtons/Tooting-111050.html,CR4,,3.0,2023-06-26 09:35:18.449125,Terraced,3.0,1.0,87.0,"Gorringe Park Avenue, Mitcham",51.4164346,-0.1580114
819,500000,2 bedroom flat for sale,"Graham Road, Wimbledon, London, SW19",http://www.rightmove.co.uk/properties/132084425#/?channel=RES_BUY,http://www.rightmove.co.uk/estate-agents/agent/Foxtons/Wimbledon-15975.html,SW19,,2.0,2023-06-26 09:35:18.449125,Flat,2.0,1.0,66.0,"Graham Road, Wimbledon",51.4164064,-0.2045899
822,500000,3 bedroom semi-detached house for sale,"Sunnymead Avenue, Mitcham, CR4",http://www.rightmove.co.uk/properties/133722338#/?channel=RES_BUY,http://www.rightmove.co.uk/estate-agents/agent/Foxtons/Norbury-253856.html,CR4,,3.0,2023-06-26 09:35:18.449125,Semi-Detached,3.0,1.0,81.0,"Sunnymead Avenue, Mitcham",,
829,500000,2 bedroom terraced house for sale,"North Road, Wimbledon, London, SW19",http://www.rightmove.co.uk/properties/130044239#/?channel=RES_BUY,http://www.rightmove.co.uk/estate-agents/agent/Foxtons/Wimbledon-15975.html,SW19,,2.0,2023-06-26 09:35:18.449125,Terraced,2.0,1.0,70.0,"North Road, Wimbledon",51.4226718,-0.1795274
842,500000,4 bedroom terraced house for sale,"Sherwood Park Road, Mitcham, CR4",http://www.rightmove.co.uk/properties/133483949#/?channel=RES_BUY,http://www.rightmove.co.uk/estate-agents/agent/Foxtons/Norbury-253856.html,CR4,,4.0,2023-06-26 09:35:18.449125,Terraced,4.0,2.0,119.0,"Sherwood Park Road, Mitcham",51.4007317,-0.145701
848,500000,1 bedroom flat for sale,"The Helme, Lake Road, Wimbledon",http://www.rightmove.co.uk/properties/134961068#/?channel=RES_BUY,http://www.rightmove.co.uk/estate-agents/agent/andrew-scott-robertson/Wimbledon-Village-135596.html,,,1.0,2023-06-26 09:35:18.449125,Flat,1.0,1.0,63.0,"The Helme, Lake Road",,
851,500000,3 bedroom flat for sale,"Worple Road, Raynes Park, London, SW20",http://www.rightmove.co.uk/properties/81574671#/?channel=RES_BUY,http://www.rightmove.co.uk/estate-agents/agent/Foxtons/Wimbledon-15975.html,SW20,,3.0,2023-06-26 09:35:18.449125,Flat,3.0,1.0,78.0,"Worple Road, Raynes Park",51.410809,-0.2277512
883,495000,3 bedroom flat for sale,"Morden Road, South Wimbledon, London, SW19",http://www.rightmove.co.uk/properties/124272866#/?channel=RES_BUY,http://www.rightmove.co.uk/estate-agents/agent/Foxtons/Wimbledon-15975.html,SW19,,3.0,2023-06-26 09:35:18.449125,Flat,3.0,1.0,79.0,"Morden Road, South Wimbledon",51.4151759,-0.1926457
890,485000,3 bedroom terraced house for sale,"Savill Gardens, London, SW20 0UJ",http://www.rightmove.co.uk/properties/135799409#/?channel=RES_BUY,http://www.rightmove.co.uk/estate-agents/agent/eXp-UK/London-238265.html,SW20,SW20 0UJ,3.0,2023-06-26 09:35:18.449125,Terraced,3.0,2.0,113.0,"Savill Gardens, London",51.4061915,-0.2404426
895,485000,2 bedroom flat for sale,"Haydons Road, Wimbledon, London, SW19",http://www.rightmove.co.uk/properties/131363147#/?channel=RES_BUY,http://www.rightmove.co.uk/estate-agents/agent/Foxtons/Wimbledon-15975.html,SW19,,2.0,2023-06-26 09:35:18.449125,Flat,2.0,2.0,75.0,"Haydons Road, Wimbledon",51.4253627,-0.1883425
906,475000,2 bedroom flat for sale,"Kingston Road, Wimbledon",http://www.rightmove.co.uk/properties/132295244#/?channel=RES_BUY,http://www.rightmove.co.uk/estate-agents/agent/andrew-scott-robertson/Wimbledon-Village-135596.html,,,2.0,2023-06-26 09:35:18.449125,Flat,2.0,1.0,79.0,"Kingston Road, Wimbledon",51.4156177,-0.1927279
940,475000,4 bedroom terraced house for sale,"Sherwood Park Road, CR4, Mitcham, CR4",http://www.rightmove.co.uk/properties/132556784#/?channel=RES_BUY,http://www.rightmove.co.uk/estate-agents/agent/Foxtons-Auction/Covering-London-219074.html,CR4,,4.0,2023-06-26 09:35:18.449125,Terraced,4.0,2.0,144.0,"Sherwood Park Road, CR4",51.3993502,-0.1390189
951,460000,2 bedroom bungalow for sale,"Haslemere Avenue, Mitcham, CR4",http://www.rightmove.co.uk/properties/132784727#/?channel=RES_BUY,http://www.rightmove.co.uk/estate-agents/agent/Foxtons/Tooting-111050.html,CR4,,2.0,2023-06-26 09:35:18.449125,Bungalow,2.0,1.0,62.0,"Haslemere Avenue, Mitcham",51.4083613,-0.1806498
952,460000,3 bedroom terraced house for sale,"Kingsbridge Road, Morden",http://www.rightmove.co.uk/properties/134616062#/?channel=RES_BUY,http://www.rightmove.co.uk/estate-agents/agent/Drury-and-Cole/Morden-46667.html,,,3.0,2023-06-26 09:35:18.449125,Terraced,3.0,1.0,67.0,"Kingsbridge Road, Morden",51.3849243,-0.2210476
957,450000,3 bedroom end of terrace house for sale,"Fleming Mead, Mitcham, Surrey",http://www.rightmove.co.uk/properties/136385090#/?channel=RES_BUY,http://www.rightmove.co.uk/estate-agents/agent/Keller-Williams-Plus/Covering-South-East-214967.html,,,3.0,2023-06-26 09:35:18.449125,End of Terrace,3.0,1.0,88.0,"Fleming Mead, Mitcham",51.4169835,-0.16774
960,450000,2 bedroom maisonette for sale,"College Road, Colliers Wood",http://www.rightmove.co.uk/properties/133621118#/?channel=RES_BUY,http://www.rightmove.co.uk/estate-agents/agent/C-James-and-Co/Colliers-Wood-5256.html,,,2.0,2023-06-26 09:35:18.449125,Maisonette,2.0,1.0,65.0,"College Road, Colliers Wood",,
970,450000,2 bedroom flat for sale,"Abbey Road, South Wimbledon, London, SW19",http://www.rightmove.co.uk/properties/135636692#/?channel=RES_BUY,http://www.rightmove.co.uk/estate-agents/agent/Foxtons/Wimbledon-15975.html,SW19,,2.0,2023-06-26 09:35:18.449125,Flat,2.0,1.0,47.0,"Abbey Road, South Wimbledon",51.4150227,-0.1860725
982,450000,1 bedroom ground floor flat for sale,"Arterberry Road, London, SW20",http://www.rightmove.co.uk/properties/135081506#/?channel=RES_BUY,http://www.rightmove.co.uk/estate-agents/agent/Lucie-White-and-Company/London---Sales-225416.html,SW20,,1.0,2023-06-26 09:35:18.449125,Ground Flat,1.0,1.0,51.0,"Arterberry Road, London",51.4177671,-0.2270437
1004,450000,1 bedroom maisonette for sale,"Kingston Road, Wimbledon, London, SW20",http://www.rightmove.co.uk/properties/128300915#/?channel=RES_BUY,http://www.rightmove.co.uk/estate-agents/agent/Foxtons/Wimbledon-15975.html,SW20,,1.0,2023-06-26 09:35:18.449125,Maisonette,1.0,1.0,60.0,"Kingston Road, Wimbledon",51.4156177,-0.1927279
1021,440000,2 bedroom semi-detached house for sale,"Middleton Road, Morden, SM4",http://www.rightmove.co.uk/properties/136016810#/?channel=RES_BUY,http://www.rightmove.co.uk/estate-agents/agent/The-Agency-UK/Covering-Nationwide-230252.html,SM4,,2.0,2023-06-26 09:35:18.449125,Semi-Detached,2.0,1.0,83.0,"Middleton Road, Morden",51.3886569,-0.1835732
1033,435000,1 bedroom flat for sale,"Kingston Road, Raynes Park, London, SW20",http://www.rightmove.co.uk/properties/134133068#/?channel=RES_BUY,http://www.rightmove.co.uk/estate-agents/agent/Foxtons/Wimbledon-15975.html,SW20,,1.0,2023-06-26 09:35:18.449125,Flat,1.0,1.0,51.0,"Kingston Road, Raynes Park",51.4097446,-0.2262334
1049,425000,2 bedroom terraced house for sale,"Oakwood Avenue, Mitcham, CR4",http://www.rightmove.co.uk/properties/132099392#/?channel=RES_BUY,http://www.rightmove.co.uk/estate-agents/agent/Foxtons/Tooting-111050.html,CR4,,2.0,2023-06-26 09:35:18.449125,Terraced,2.0,1.0,75.0,"Oakwood Avenue, Mitcham",51.40873,-0.1765181
