Unnamed: 0,price,type,address,url,agent_url,postcode,full_postcode,number_bedrooms,search_date,property_type,bedrooms,bathrooms,size_square_meters,new_address,latitude,longitude
19,4500000,9 bedroom detached house for sale,"Beverley Lane, Kingston Upon Thames KT2",http://www.rightmove.co.uk/properties/135892892#/?channel=RES_BUY,http://www.rightmove.co.uk/estate-agents/agent/Flagstones-Property-Group/Northwood-252785.html,KT2,,9.0,2023-06-26 09:17:45.357332,Detached,9.0,9.0,935.0,"Beverley Lane, Kingston Upon Thames KT2",51.4171158,-0.2547403
27,3500000,6 bedroom detached house for sale,"Coombe Ridings, Kingston Upon Thames, Surrey, KT2",http://www.rightmove.co.uk/properties/133561040#/?channel=RES_BUY,http://www.rightmove.co.uk/estate-agents/agent/HNF-Property/Croydon-82254.html,KT2,,6.0,2023-06-26 09:17:45.357332,Detached,6.0,6.0,664.0,"Coombe Ridings, Kingston Upon Thames",51.4253638,-0.2708693
38,3000000,5 bedroom detached house for sale,"Coombe Lane West, Coombe, Kingston Upon Thames, Surrey, KT2",http://www.rightmove.co.uk/properties/133396325#/?channel=RES_BUY,http://www.rightmove.co.uk/estate-agents/agent/Fine-and-Country/Putney-246251.html,KT2,,5.0,2023-06-26 09:17:45.357332,Detached,5.0,4.0,263.0,"Coombe Lane West, Coombe",51.4160536,-0.2530925
40,3000000,5 bedroom house for sale,"Coombe Lane West, Kingston Upon Thames",http://www.rightmove.co.uk/properties/130254566#/?channel=RES_BUY,http://www.rightmove.co.uk/estate-agents/agent/Hunters/Surbiton-251504.html,,,5.0,2023-06-26 09:17:45.357332,House,5.0,4.0,263.0,"Coombe Lane West, Kingston Upon Thames",51.4160536,-0.2530925
48,2750000,5 bedroom detached house for sale,"Coombe Neville, Kingston Upon Thames, KT2",http://www.rightmove.co.uk/properties/135260825#/?channel=RES_BUY,http://www.rightmove.co.uk/estate-agents/agent/Fuller-Gilbert-and-Co/Wimbledon-3883.html,KT2,,5.0,2023-06-26 09:17:45.357332,Detached,5.0,2.0,299.0,"Coombe Neville, Kingston Upon Thames",51.418415,-0.2672298
49,2700000,4 bedroom detached house for sale,"Warren Road, Kingston Upon Thames",http://www.rightmove.co.uk/properties/128625575#/?channel=RES_BUY,http://www.rightmove.co.uk/estate-agents/agent/Hunters/Surbiton-251504.html,,,4.0,2023-06-26 09:17:45.357332,Detached,4.0,3.0,242.0,"Warren Road, Kingston Upon Thames",51.4211435,-0.269193
50,175000,1 bedroom retirement property for sale,"Clayton Road, Chessington",http://www.rightmove.co.uk/properties/136314371#/?channel=RES_BUY,http://www.rightmove.co.uk/estate-agents/agent/Rice-and-Roman/Esher-93448.html,,,1.0,2023-06-26 09:17:45.357332,Retirement Property,1.0,1.0,39.0,"Clayton Road, Chessington",51.3666212,-0.3070364
55,2500000,8 bedroom detached house for sale,"Upper Brighton Road, Surbiton",http://www.rightmove.co.uk/properties/136119542#/?channel=RES_BUY,http://www.rightmove.co.uk/estate-agents/agent/Hunters/Surbiton-251504.html,,,8.0,2023-06-26 09:17:45.357332,Detached,8.0,3.0,361.0,"Upper Brighton Road, Surbiton",51.3882295,-0.3033101
56,2500000,5 bedroom detached house for sale,"Lower Ham Road, North Kingston, Kingston upon Thames, KT2",http://www.rightmove.co.uk/properties/136329716#/?channel=RES_BUY,http://www.rightmove.co.uk/estate-agents/agent/Foxtons/Kingston-57272.html,KT2,,5.0,2023-06-26 09:17:45.357332,Detached,5.0,3.0,251.0,"Lower Ham Road, North Kingston",,
58,2495000,5 bedroom detached house for sale,"Henley Drive, Kingston Upon Thames",http://www.rightmove.co.uk/properties/132902183#/?channel=RES_BUY,http://www.rightmove.co.uk/estate-agents/agent/Hunters/Surbiton-251504.html,,,5.0,2023-06-26 09:17:45.357332,Detached,5.0,3.0,376.0,"Henley Drive, Kingston Upon Thames",51.4188902,-0.2525129
69,2250000,5 bedroom detached house for sale,Barrons Chase TW10,http://www.rightmove.co.uk/properties/136321109#/?channel=RES_BUY,http://www.rightmove.co.uk/estate-agents/agent/Wilfords-London/Wandsworth-260447.html,TW10,,5.0,2023-06-26 09:17:45.357332,Detached,5.0,3.0,230.0,Barrons Chase TW10,,
72,2250000,5 bedroom detached house for sale,Barrons Chase TW10,http://www.rightmove.co.uk/properties/136315616#/?channel=RES_BUY,http://www.rightmove.co.uk/estate-agents/agent/Wilfords-London/Kensington-54072.html,TW10,,5.0,2023-06-26 09:17:45.357332,Detached,5.0,3.0,230.0,Barrons Chase TW10,,
77,2000000,5 bedroom house for sale,"Harewood Lodge, Kingston Hill, London, SW15",http://www.rightmove.co.uk/properties/134834468#/?channel=RES_BUY,http://www.rightmove.co.uk/estate-agents/agent/Foxtons/Kingston-57272.html,SW15,,5.0,2023-06-26 09:17:45.357332,House,5.0,3.0,266.0,"Harewood Lodge, Kingston Hill",,
86,1900000,9 bedroom detached house for sale,"Kingston Road, New Malden, KT3",http://www.rightmove.co.uk/properties/86045835#/?channel=RES_BUY,http://www.rightmove.co.uk/estate-agents/agent/Foxtons/New-Malden-149153.html,KT3,,9.0,2023-06-26 09:17:45.357332,Detached,9.0,9.0,268.0,"Kingston Road, New Malden",51.4030199,-0.2730605
89,1795000,5 bedroom detached house for sale,"Cardinal Crescent, New Malden, KT3",http://www.rightmove.co.uk/properties/133158776#/?channel=RES_BUY,http://www.rightmove.co.uk/estate-agents/agent/The-Agency-UK/Covering-Nationwide-230252.html,KT3,,5.0,2023-06-26 09:17:45.357332,Detached,5.0,4.0,236.0,"Cardinal Crescent, New Malden",51.4111202,-0.2730748
90,1795000,4 bedroom detached house for sale,"Coombe Road, New Malden, KT3",http://www.rightmove.co.uk/properties/130285160#/?channel=RES_BUY,http://www.rightmove.co.uk/estate-agents/agent/Robert-Holmes-and-Co/Coombe-Lane-170621.html,KT3,,4.0,2023-06-26 09:17:45.357332,Detached,4.0,1.0,203.0,"Coombe Road, New Malden",51.4080635,-0.2582288
97,1750000,5 bedroom detached house for sale,"Grove Crescent, Kingston, Kingston upon Thames, KT1",http://www.rightmove.co.uk/properties/131464601#/?channel=RES_BUY,http://www.rightmove.co.uk/estate-agents/agent/Foxtons/Kingston-57272.html,KT1,,5.0,2023-06-26 09:17:45.357332,Detached,5.0,3.0,416.0,"Grove Crescent, Kingston",51.4041572,-0.3030689
103,1750000,3 bedroom detached house for sale,"Woodside Road, New Malden, KT3",http://www.rightmove.co.uk/properties/135890564#/?channel=RES_BUY,http://www.rightmove.co.uk/estate-agents/agent/Robert-Holmes-and-Co/Coombe-Lane-170621.html,KT3,,3.0,2023-06-26 09:17:45.357332,Detached,3.0,2.0,168.0,"Woodside Road, New Malden",51.408181,-0.2606551
106,1695000,4 bedroom detached house for sale,"Woodlands Avenue, Coombe, New Malden, KT3",http://www.rightmove.co.uk/properties/130891523#/?channel=RES_BUY,http://www.rightmove.co.uk/estate-agents/agent/Foxtons/New-Malden-149153.html,KT3,,4.0,2023-06-26 09:17:45.357332,Detached,4.0,3.0,208.0,"Woodlands Avenue, Coombe",51.4110641,-0.2684689
108,1675000,4 bedroom link detached house for sale,"Warbank Lane, Kingston Upon Thames, KT2",http://www.rightmove.co.uk/properties/133150919#/?channel=RES_BUY,http://www.rightmove.co.uk/estate-agents/agent/Robert-Holmes-and-Co/Coombe-Lane-170621.html,KT2,,4.0,2023-06-26 09:17:45.357332,Link Detached House,4.0,2.0,211.0,"Warbank Lane, Kingston Upon Thames",51.4172138,-0.2523047
131,1450000,5 bedroom detached house for sale,"Staunton Road, North Kingston, Kingston upon Thames, KT2",http://www.rightmove.co.uk/properties/136186907#/?channel=RES_BUY,http://www.rightmove.co.uk/estate-agents/agent/Foxtons/Kingston-57272.html,KT2,,5.0,2023-06-26 09:17:45.357332,Detached,5.0,2.0,153.0,"Staunton Road, North Kingston",,
132,1425000,3 bedroom detached house for sale,"Woodlands Avenue, New Malden, KT3",http://www.rightmove.co.uk/properties/136106630#/?channel=RES_BUY,http://www.rightmove.co.uk/estate-agents/agent/Robert-Holmes-and-Co/Coombe-Lane-170621.html,KT3,,3.0,2023-06-26 09:17:45.357332,Detached,3.0,1.0,111.0,"Woodlands Avenue, New Malden",51.4110641,-0.2684689
135,1400000,4 bedroom detached house for sale,"Park Road, Kingston upon Thames",http://www.rightmove.co.uk/properties/136067231#/?channel=RES_BUY,http://www.rightmove.co.uk/estate-agents/agent/Stack-and-Bonner/Kingston-Upon-Thames-46386.html,,,4.0,2023-06-26 09:17:45.357332,Detached,4.0,3.0,205.0,"Park Road, Kingston upon Thames",51.4190788,-0.2887875
136,1400000,4 bedroom detached house for sale,"High Drive, New Malden",http://www.rightmove.co.uk/properties/133191149#/?channel=RES_BUY,http://www.rightmove.co.uk/estate-agents/agent/Hunters/Worcester-Park-142988.html,,,4.0,2023-06-26 09:17:45.357332,Detached,4.0,2.0,153.0,"High Drive, New Malden",51.4112839,-0.2701116
143,1350000,5 bedroom semi-detached house for sale,"Hook Road, Surbiton, Surrey",http://www.rightmove.co.uk/properties/135586847#/?channel=RES_BUY,http://www.rightmove.co.uk/estate-agents/agent/Keller-Williams-Prime-Properties/London-146753.html,,,5.0,2023-06-26 09:17:45.357332,Semi-Detached,5.0,2.0,238.0,"Hook Road, Surbiton",51.3813248,-0.3012504
150,900000,6 bedroom house for sale,"Motspur Park, New Malden, KT3",http://www.rightmove.co.uk/properties/134926286#/?channel=RES_BUY,http://www.rightmove.co.uk/estate-agents/agent/Foxtons/New-Malden-149153.html,KT3,,6.0,2023-06-26 09:17:45.357332,House,6.0,3.0,145.0,"Motspur Park, New Malden",51.3920742,-0.2446385
157,1290000,6 bedroom end of terrace house for sale,NORTH KINGSTON,http://www.rightmove.co.uk/properties/133038089#/?channel=RES_BUY,http://www.rightmove.co.uk/estate-agents/agent/Mervyn-Smith/Ham-3710.html,,,6.0,2023-06-26 09:17:45.357332,End of Terrace,6.0,3.0,181.0,NORTH KINGSTON,50.824858,-1.7698763
168,1250000,4 bedroom detached house for sale,"Kingston Road, New Malden, KT3",http://www.rightmove.co.uk/properties/134099123#/?channel=RES_BUY,http://www.rightmove.co.uk/estate-agents/agent/Foxtons/New-Malden-149153.html,KT3,,4.0,2023-06-26 09:17:45.357332,Detached,4.0,3.0,239.0,"Kingston Road, New Malden",51.4030199,-0.2730605
170,1250000,4 bedroom terraced house for sale,"Northweald Lane, North Kingston, Kingston upon Thames, KT2",http://www.rightmove.co.uk/properties/132427871#/?channel=RES_BUY,http://www.rightmove.co.uk/estate-agents/agent/Foxtons/Kingston-57272.html,KT2,,4.0,2023-06-26 09:17:45.357332,Terraced,4.0,3.0,157.0,"Northweald Lane, North Kingston",,
177,1200000,5 bedroom terraced house for sale,"Arundel Road, Kingston, Kingston upon Thames, KT1",http://www.rightmove.co.uk/properties/136135058#/?channel=RES_BUY,http://www.rightmove.co.uk/estate-agents/agent/Foxtons/Kingston-57272.html,KT1,,5.0,2023-06-26 09:17:45.357332,Terraced,5.0,3.0,135.0,"Arundel Road, Kingston",51.4112285,-0.2764564
186,1175000,3 bedroom apartment for sale,"Claremont Gardens, London KT6",http://www.rightmove.co.uk/properties/135440165#/?channel=RES_BUY,http://www.rightmove.co.uk/estate-agents/agent/The-Modern-House/London-65243.html,KT6,,3.0,2023-06-26 09:17:45.357332,Apartment,3.0,3.0,153.0,"Claremont Gardens, London KT6",51.3988639,-0.3029424
194,1100000,5 bedroom semi-detached house for sale,"Poplar Gardens, New Malden, KT3 3DW",http://www.rightmove.co.uk/properties/136536467#/?channel=RES_BUY,http://www.rightmove.co.uk/estate-agents/agent/FarleyWood/New-Malden-226556.html,KT3,KT3 3DW,5.0,2023-06-26 09:17:45.357332,Semi-Detached,5.0,2.0,163.0,"Poplar Gardens, New Malden",51.4075736,-0.2623482
205,1100000,3 bedroom apartment for sale,"Kingston Riverside, Kingston upon Thames",http://www.rightmove.co.uk/properties/131475203#/?channel=RES_BUY,http://www.rightmove.co.uk/estate-agents/agent/Stack-and-Bonner/Kingston-Upon-Thames-46386.html,,,3.0,2023-06-26 09:17:45.357332,Apartment,3.0,3.0,109.0,"Kingston Riverside, Kingston upon Thames",51.4141767,-0.3067565841877262
208,1095000,4 bedroom semi-detached house for sale,"Park Road, Kingston upon Thames",http://www.rightmove.co.uk/properties/129098819#/?channel=RES_BUY,http://www.rightmove.co.uk/estate-agents/agent/Stack-and-Bonner/Kingston-Upon-Thames-46386.html,,,4.0,2023-06-26 09:17:45.357332,Semi-Detached,4.0,2.0,143.0,"Park Road, Kingston upon Thames",51.4190788,-0.2887875
213,1050000,4 bedroom semi-detached house for sale,"Hornbeam Gardens, New Malden",http://www.rightmove.co.uk/properties/135349874#/?channel=RES_BUY,http://www.rightmove.co.uk/estate-agents/agent/SeOUL-Residential/New-Malden-73282.html,,,4.0,2023-06-26 09:17:45.357332,Semi-Detached,4.0,3.0,188.0,"Hornbeam Gardens, New Malden",,
232,1000000,4 bedroom semi-detached house for sale,"Chestnut Grove, New Malden, KT3",http://www.rightmove.co.uk/properties/131258684#/?channel=RES_BUY,http://www.rightmove.co.uk/estate-agents/agent/Foxtons/New-Malden-149153.html,KT3,,4.0,2023-06-26 09:17:45.357332,Semi-Detached,4.0,2.0,163.0,"Chestnut Grove, New Malden",51.4051096,-0.2613395
239,990000,4 bedroom end of terrace house for sale,"Walton Avenue, New Malden",http://www.rightmove.co.uk/properties/134935217#/?channel=RES_BUY,http://www.rightmove.co.uk/estate-agents/agent/SeOUL-Residential/New-Malden-73282.html,,,4.0,2023-06-26 09:17:45.357332,End of Terrace,4.0,2.0,129.0,"Walton Avenue, New Malden",51.3986043,-0.2527497
247,950000,3 bedroom semi-detached house for sale,"Kenley Road, Kingston Upon Thames",http://www.rightmove.co.uk/properties/136373696#/?channel=RES_BUY,http://www.rightmove.co.uk/estate-agents/agent/Hunters/Surbiton-251504.html,,,3.0,2023-06-26 09:17:45.357332,Semi-Detached,3.0,1.0,99.0,"Kenley Road, Kingston Upon Thames",51.4086075,-0.2737171
249,950000,4 bedroom detached house for sale,"Ewell Road, Tolworth, Surbiton",http://www.rightmove.co.uk/properties/86138118#/?channel=RES_BUY,http://www.rightmove.co.uk/estate-agents/agent/Stack-and-Bonner/Kingston-Upon-Thames-46386.html,,,4.0,2023-06-26 09:17:45.357332,Detached,4.0,2.0,157.0,"Ewell Road, Tolworth",51.3833832,-0.2890638
250,1750000,5 bedroom detached house for sale,"Grove Crescent, Kingston, Kingston upon Thames, KT1",http://www.rightmove.co.uk/properties/131464601#/?channel=RES_BUY,http://www.rightmove.co.uk/estate-agents/agent/Foxtons/Kingston-57272.html,KT1,,5.0,2023-06-26 09:17:45.357332,Detached,5.0,3.0,416.0,"Grove Crescent, Kingston",51.4041572,-0.3030689
254,950000,4 bedroom detached house for sale,"Onslow Road, New Malden, KT3 4AR",http://www.rightmove.co.uk/properties/130872434#/?channel=RES_BUY,http://www.rightmove.co.uk/estate-agents/agent/FarleyWood/New-Malden-226556.html,KT3,KT3 4AR,4.0,2023-06-26 09:17:45.357332,Detached,4.0,1.0,175.0,"Onslow Road, New Malden",51.4009582,-0.2469468
255,950000,3 bedroom semi-detached house for sale,"Kenley Road, Kingston, Kingston upon Thames, KT1",http://www.rightmove.co.uk/properties/136329710#/?channel=RES_BUY,http://www.rightmove.co.uk/estate-agents/agent/Foxtons/Kingston-57272.html,KT1,,3.0,2023-06-26 09:17:45.357332,Semi-Detached,3.0,1.0,103.0,"Kenley Road, Kingston",51.4086075,-0.2737171
256,950000,5 bedroom detached house for sale,"Surbiton, Surrey, KT6",http://www.rightmove.co.uk/properties/135763619#/?channel=RES_BUY,http://www.rightmove.co.uk/estate-agents/agent/Chancellors/Surbiton-30503.html,KT6,,5.0,2023-06-26 09:17:45.357332,Detached,5.0,2.0,125.0,"Surbiton, Surrey",51.4048821,-0.30519925548053134
266,950000,4 bedroom detached house for sale,"Elgar Avenue, Surbiton",http://www.rightmove.co.uk/properties/135715358#/?channel=RES_BUY,http://www.rightmove.co.uk/estate-agents/agent/Elizabeth-Wightwick-Bespoke-Lettings/Wimbledon-Village-177239.html,,,4.0,2023-06-26 09:17:45.357332,Detached,4.0,2.0,135.0,"Elgar Avenue, Surbiton",51.3842499,-0.2835117
281,900000,6 bedroom house for sale,"Motspur Park, New Malden, KT3",http://www.rightmove.co.uk/properties/134926286#/?channel=RES_BUY,http://www.rightmove.co.uk/estate-agents/agent/Foxtons/New-Malden-149153.html,KT3,,6.0,2023-06-26 09:17:45.357332,House,6.0,3.0,145.0,"Motspur Park, New Malden",51.3920742,-0.2446385
287,900000,4 bedroom link detached house for sale,"Motspur Park, New Malden",http://www.rightmove.co.uk/properties/136324790#/?channel=RES_BUY,http://www.rightmove.co.uk/estate-agents/agent/SeOUL-Residential/New-Malden-73282.html,,,4.0,2023-06-26 09:17:45.357332,Link Detached House,4.0,2.0,128.0,"Motspur Park, New Malden",51.3920742,-0.2446385
288,900000,4 bedroom semi-detached house for sale,"Dukes Avenue, New Malden, KT3",http://www.rightmove.co.uk/properties/131833310#/?channel=RES_BUY,http://www.rightmove.co.uk/estate-agents/agent/Foxtons/New-Malden-149153.html,KT3,,4.0,2023-06-26 09:17:45.357332,Semi-Detached,4.0,2.0,129.0,"Dukes Avenue, New Malden",51.4042101,-0.2514415
305,878500,4 bedroom detached house for sale,"Kingswood Close, New Malden",http://www.rightmove.co.uk/properties/135071606#/?channel=RES_BUY,http://www.rightmove.co.uk/estate-agents/agent/Open-House-Estate-Agents/Nationwide-50334.html,,,4.0,2023-06-26 09:17:45.357332,Detached,4.0,1.0,117.0,"Kingswood Close, New Malden",,
309,875000,3 bedroom house for sale,"Lawrence Avenue, New Malden",http://www.rightmove.co.uk/properties/133636262#/?channel=RES_BUY,http://www.rightmove.co.uk/estate-agents/agent/C-James-and-Co/Colliers-Wood-5256.html,,,3.0,2023-06-26 09:17:45.357332,House,3.0,1.0,131.0,"Lawrence Avenue, New Malden",,
314,850000,3 bedroom semi-detached house for sale,"Malden Hill Gardens, New Malden, Surrey",http://www.rightmove.co.uk/properties/133558076#/?channel=RES_BUY,http://www.rightmove.co.uk/estate-agents/agent/Marcus-Reilly/New-Malden-258875.html,,,3.0,2023-06-26 09:17:45.357332,Semi-Detached,3.0,1.0,154.0,"Malden Hill Gardens, New Malden",51.4034183,-0.2497384
318,850000,3 bedroom semi-detached house for sale,"Lawrence Avenue, London",http://www.rightmove.co.uk/properties/130485191#/?channel=RES_BUY,http://www.rightmove.co.uk/estate-agents/agent/SeOUL-Residential/New-Malden-73282.html,,,3.0,2023-06-26 09:17:45.357332,Semi-Detached,3.0,2.0,134.0,"Lawrence Avenue, London",51.6000996,-0.037613
321,850000,3 bedroom semi-detached house for sale,"Fassett Road, Kingston Upon Thames KT1",http://www.rightmove.co.uk/properties/128609159#/?channel=RES_BUY,http://www.rightmove.co.uk/estate-agents/agent/eXp-UK/London-238265.html,KT1,,3.0,2023-06-26 09:17:45.357332,Semi-Detached,3.0,1.0,88.0,"Fassett Road, Kingston Upon Thames KT1",,
322,850000,5 bedroom semi-detached house for sale,"Raeburn Avenue, Surbiton, KT5 9BN",http://www.rightmove.co.uk/properties/130533587#/?channel=RES_BUY,http://www.rightmove.co.uk/estate-agents/agent/eXp-UK/East-of-England-238262.html,KT5,KT5 9BN,5.0,2023-06-26 09:17:45.357332,Semi-Detached,5.0,3.0,169.0,"Raeburn Avenue, Surbiton",,
324,850000,3 bedroom semi-detached house for sale,"Eton Avenue, New Malden, KT3",http://www.rightmove.co.uk/properties/135597629#/?channel=RES_BUY,http://www.rightmove.co.uk/estate-agents/agent/Foxtons/New-Malden-149153.html,KT3,,3.0,2023-06-26 09:17:45.357332,Semi-Detached,3.0,3.0,112.0,"Eton Avenue, New Malden",51.3982908,-0.2655929
334,835000,2 bedroom apartment for sale,"Kingston Riverside, Kingston upon Thames",http://www.rightmove.co.uk/properties/131497424#/?channel=RES_BUY,http://www.rightmove.co.uk/estate-agents/agent/Stack-and-Bonner/Kingston-Upon-Thames-46386.html,,,2.0,2023-06-26 09:17:45.357332,Apartment,2.0,2.0,85.0,"Kingston Riverside, Kingston upon Thames",51.4141767,-0.3067565841877262
347,800000,6 bedroom semi-detached house for sale,"Malden Road, New Malden, KT3",http://www.rightmove.co.uk/properties/127725401#/?channel=RES_BUY,http://www.rightmove.co.uk/estate-agents/agent/Foxtons/New-Malden-149153.html,KT3,,6.0,2023-06-26 09:17:45.357332,Semi-Detached,6.0,4.0,182.0,"Malden Road, New Malden",51.3960977,-0.25491
350,800000,3 bedroom house for sale,"Herbert Road, Kingston, Kingston upon Thames, KT1",http://www.rightmove.co.uk/properties/86182584#/?channel=RES_BUY,http://www.rightmove.co.uk/estate-agents/agent/Foxtons/Kingston-57272.html,KT1,,3.0,2023-06-26 09:17:45.357332,House,3.0,2.0,83.0,"Herbert Road, Kingston",51.4043586,-0.2954451
352,800000,4 bedroom link detached house for sale,"Cromwell Avenue, New Malden",http://www.rightmove.co.uk/properties/133212827#/?channel=RES_BUY,http://www.rightmove.co.uk/estate-agents/agent/SeOUL-Residential/New-Malden-73282.html,,,4.0,2023-06-26 09:17:45.357332,Link Detached House,4.0,1.0,117.0,"Cromwell Avenue, New Malden",51.3973185,-0.2529018
354,800000,3 bedroom house for sale,"Herbert Road, Kingston, Kingston upon Thames, KT1",http://www.rightmove.co.uk/properties/86182584#/?channel=RES_BUY,http://www.rightmove.co.uk/estate-agents/agent/Foxtons/Kingston-57272.html,KT1,,3.0,2023-06-26 09:17:45.357332,House,3.0,2.0,83.0,"Herbert Road, Kingston",51.4043586,-0.2954451
393,775000,4 bedroom semi-detached house for sale,"Motspur Park, New Malden",http://www.rightmove.co.uk/properties/133592498#/?channel=RES_BUY,http://www.rightmove.co.uk/estate-agents/agent/Hunters/Worcester-Park-142988.html,,,4.0,2023-06-26 09:17:45.357332,Semi-Detached,4.0,2.0,139.0,"Motspur Park, New Malden",51.3920742,-0.2446385
409,750000,4 bedroom end of terrace house for sale,"Lower Green Gardens, KT4 7NX",http://www.rightmove.co.uk/properties/132757598#/?channel=RES_BUY,http://www.rightmove.co.uk/estate-agents/agent/Hunters/Worcester-Park-142988.html,KT4,KT4 7NX,4.0,2023-06-26 09:17:45.357332,End of Terrace,4.0,2.0,116.0,"Lower Green Gardens, KT4 7NX",51.3825343,-0.2457253
417,749950,2 bedroom apartment for sale,"Albany Park Road, Kingston Upon Thames",http://www.rightmove.co.uk/properties/86168571#/?channel=RES_BUY,http://www.rightmove.co.uk/estate-agents/agent/Stack-and-Bonner/Kingston-Upon-Thames-46386.html,,,2.0,2023-06-26 09:17:45.357332,Apartment,2.0,1.0,74.0,"Albany Park Road, Kingston Upon Thames",51.4221664,-0.3034089
438,725000,3 bedroom semi-detached house for sale,"Mayfair Avenue, Worcester Park",http://www.rightmove.co.uk/properties/135331163#/?channel=RES_BUY,http://www.rightmove.co.uk/estate-agents/agent/Hunters/Worcester-Park-142988.html,,,3.0,2023-06-26 09:17:45.357332,Semi-Detached,3.0,1.0,142.0,"Mayfair Avenue, Worcester Park",,
439,725000,4 bedroom detached bungalow for sale,"Woodside Close, Surbiton",http://www.rightmove.co.uk/properties/134823869#/?channel=RES_BUY,http://www.rightmove.co.uk/estate-agents/agent/Greenfield-Estate-Agents/Surbiton-59831.html,,,4.0,2023-06-26 09:17:45.357332,Detached Bungalow,4.0,1.0,136.0,"Woodside Close, Surbiton",,
446,700000,3 bedroom maisonette for sale,"Surbiton, Kingston upon Thames, KT6",http://www.rightmove.co.uk/properties/131237840#/?channel=RES_BUY,http://www.rightmove.co.uk/estate-agents/agent/Chancellors/Surbiton-30503.html,KT6,,3.0,2023-06-26 09:17:45.357332,Maisonette,3.0,1.0,83.0,"Surbiton, Kingston upon Thames",51.3937557,-0.3033105
449,700000,2 bedroom flat for sale,"Queenshurst Square, Kingston Upon Thames",http://www.rightmove.co.uk/properties/132337280#/?channel=RES_BUY,http://www.rightmove.co.uk/estate-agents/agent/Hunters/Surbiton-251504.html,,,2.0,2023-06-26 09:17:45.357332,Flat,2.0,2.0,78.0,"Queenshurst Square, Kingston Upon Thames",,
470,690000,4 bedroom semi-detached house for sale,"Hook Rise South, Surbiton",http://www.rightmove.co.uk/properties/133426739#/?channel=RES_BUY,http://www.rightmove.co.uk/estate-agents/agent/Hunters/Surbiton-251504.html,,,4.0,2023-06-26 09:17:45.357332,Semi-Detached,4.0,3.0,111.0,"Hook Rise South, Surbiton",,
471,685000,2 bedroom apartment for sale,"Royal Exchange Kingston, London, KT1",http://www.rightmove.co.uk/properties/129460733#/?channel=RES_BUY,http://www.rightmove.co.uk/estate-agents/agent/Lixing/Shoreditch-254453.html,KT1,,2.0,2023-06-26 09:17:45.357332,Apartment,2.0,2.0,74.0,"Royal Exchange Kingston, London",51.40841865,-0.3028117353856564
476,685000,4 bedroom terraced house for sale,"Amberwood Rise, New Malden",http://www.rightmove.co.uk/properties/135257297#/?channel=RES_BUY,http://www.rightmove.co.uk/estate-agents/agent/SeOUL-Residential/New-Malden-73282.html,,,4.0,2023-06-26 09:17:45.357332,Terraced,4.0,1.0,113.0,"Amberwood Rise, New Malden",,
479,680000,2 bedroom apartment for sale,"Kingston Riverside, Kingston upon Thames",http://www.rightmove.co.uk/properties/122439914#/?channel=RES_BUY,http://www.rightmove.co.uk/estate-agents/agent/Stack-and-Bonner/Kingston-Upon-Thames-46386.html,,,2.0,2023-06-26 09:17:45.357332,Apartment,2.0,2.0,77.0,"Kingston Riverside, Kingston upon Thames",51.4141767,-0.3067565841877262
484,675000,3 bedroom semi-detached house for sale,"Green Lane, New Malden, KT3",http://www.rightmove.co.uk/properties/131464649#/?channel=RES_BUY,http://www.rightmove.co.uk/estate-agents/agent/Foxtons/New-Malden-149153.html,KT3,,3.0,2023-06-26 09:17:45.357332,Semi-Detached,3.0,2.0,112.0,"Green Lane, New Malden",51.397563,-0.2727942
490,675000,3 bedroom terraced house for sale,"Surbiton, KT6, Surbiton, KT6",http://www.rightmove.co.uk/properties/135304286#/?channel=RES_BUY,http://www.rightmove.co.uk/estate-agents/agent/Foxtons/Kingston-57272.html,KT6,,3.0,2023-06-26 09:17:45.357332,Terraced,3.0,2.0,106.0,"Surbiton, KT6",51.39390015,-0.3121012412097403
494,675000,3 bedroom terraced house for sale,"George Road, New Malden",http://www.rightmove.co.uk/properties/130697795#/?channel=RES_BUY,http://www.rightmove.co.uk/estate-agents/agent/SeOUL-Residential/New-Malden-73282.html,,,3.0,2023-06-26 09:17:45.357332,Terraced,3.0,3.0,97.0,"George Road, New Malden",51.3980181,-0.2488428
496,675000,3 bedroom terraced house for sale,"Gillian Terrace,  The Retreat, Surbiton, KT5",http://www.rightmove.co.uk/properties/134622236#/?channel=RES_BUY,http://www.rightmove.co.uk/estate-agents/agent/Chancellors/Surbiton-30503.html,KT5,,3.0,2023-06-26 09:17:45.357332,Terraced,3.0,1.0,81.0,"Gillian Terrace,  The Retreat",51.390704,-0.29420733176182645
501,650000,2 bedroom apartment for sale,"Queenshurst Square, Kingston upon Thames",http://www.rightmove.co.uk/properties/132868898#/?channel=RES_BUY,http://www.rightmove.co.uk/estate-agents/agent/Stack-and-Bonner/Kingston-Upon-Thames-46386.html,,,2.0,2023-06-26 09:17:45.357332,Apartment,2.0,2.0,78.0,"Queenshurst Square, Kingston upon Thames",,
523,650000,2 bedroom apartment for sale,"Chesham Court, Surbiton 4 mins walk from station",http://www.rightmove.co.uk/properties/130272440#/?channel=RES_BUY,http://www.rightmove.co.uk/estate-agents/agent/Nest-Associates-Ltd/National-230888.html,,,2.0,2023-06-26 09:17:45.357332,Apartment,2.0,1.0,77.0,"Chesham Court, Surbiton 4 mins walk from station",,
532,635000,3 bedroom semi-detached house for sale,"Sheephouse Way, New Malden",http://www.rightmove.co.uk/properties/86136930#/?channel=RES_BUY,http://www.rightmove.co.uk/estate-agents/agent/SeOUL-Residential/New-Malden-73282.html,,,3.0,2023-06-26 09:17:45.357332,Semi-Detached,3.0,1.0,109.0,"Sheephouse Way, New Malden",,
538,625000,3 bedroom house for sale,"Robin Hood Way, Kingston Hill, London, SW15",http://www.rightmove.co.uk/properties/135168632#/?channel=RES_BUY,http://www.rightmove.co.uk/estate-agents/agent/Foxtons/Kingston-57272.html,SW15,,3.0,2023-06-26 09:17:45.357332,House,3.0,2.0,135.0,"Robin Hood Way, Kingston Hill",,
541,625000,4 bedroom house for sale,"The Crescent, New Malden, KT3",http://www.rightmove.co.uk/properties/127540931#/?channel=RES_BUY,http://www.rightmove.co.uk/estate-agents/agent/Foxtons/New-Malden-149153.html,KT3,,4.0,2023-06-26 09:17:45.357332,House,4.0,1.0,129.0,"The Crescent, New Malden",51.4080736,-0.2690348
551,625000,3 bedroom semi-detached house for sale,"The Crescent, New Malden, KT3 3LH",http://www.rightmove.co.uk/properties/128115968#/?channel=RES_BUY,http://www.rightmove.co.uk/estate-agents/agent/Hunters/Surbiton-251504.html,KT3,KT3 3LH,3.0,2023-06-26 09:17:45.357332,Semi-Detached,3.0,2.0,134.0,"The Crescent, New Malden",51.4080736,-0.2690348
555,625000,3 bedroom terraced house for sale,"Burlington Road, New Malden",http://www.rightmove.co.uk/properties/132245381#/?channel=RES_BUY,http://www.rightmove.co.uk/estate-agents/agent/SeOUL-Residential/New-Malden-73282.html,,,3.0,2023-06-26 09:17:45.357332,Terraced,3.0,1.0,101.0,"Burlington Road, New Malden",51.3991457,-0.2481123
560,610000,3 bedroom terraced house for sale,"Amberwood Rise, New Malden",http://www.rightmove.co.uk/properties/132653528#/?channel=RES_BUY,http://www.rightmove.co.uk/estate-agents/agent/SeOUL-Residential/New-Malden-73282.html,,,3.0,2023-06-26 09:17:45.357332,Terraced,3.0,1.0,92.0,"Amberwood Rise, New Malden",,
561,600000,2 bedroom flat for sale,"Kingston Riverside, Henry Macaulay Avenue, KT2",http://www.rightmove.co.uk/properties/131326334#/?channel=RES_BUY,http://www.rightmove.co.uk/estate-agents/agent/Chancellors/Surbiton-30503.html,KT2,,2.0,2023-06-26 09:17:45.357332,Flat,2.0,2.0,70.0,"Kingston Riverside, Henry Macaulay Avenue",51.41439965,-0.30665862443699743
566,600000,3 bedroom terraced house for sale,"Pembury Avenue, Worcester Park, KT4 8BU",http://www.rightmove.co.uk/properties/136485689#/?channel=RES_BUY,http://www.rightmove.co.uk/estate-agents/agent/Hunters/Worcester-Park-142988.html,KT4,KT4 8BU,3.0,2023-06-26 09:17:45.357332,Terraced,3.0,2.0,114.0,"Pembury Avenue, Worcester Park",51.3828225,-0.2419271
572,600000,2 bedroom flat for sale,"Ewell Road, Surbiton, KT6",http://www.rightmove.co.uk/properties/133001912#/?channel=RES_BUY,http://www.rightmove.co.uk/estate-agents/agent/Foxtons/Kingston-57272.html,KT6,,2.0,2023-06-26 09:17:45.357332,Flat,2.0,2.0,105.0,"Ewell Road, Surbiton",51.3858632,-0.2959937
576,600000,2 bedroom apartment for sale,"Langley Road, Surbiton, KT6 6BA",http://www.rightmove.co.uk/properties/134554313#/?channel=RES_BUY,http://www.rightmove.co.uk/estate-agents/agent/Robert-Leech-Estate-Agents/Oxted-3282.html,KT6,KT6 6BA,2.0,2023-06-26 09:17:45.357332,Apartment,2.0,2.0,787.0,"Langley Road, Surbiton",51.3884553,-0.2991286
578,600000,3 bedroom semi-detached house for sale,"Raleigh Drive, Surbiton, KT5 9PP",http://www.rightmove.co.uk/properties/132759731#/?channel=RES_BUY,http://www.rightmove.co.uk/estate-agents/agent/eXp-UK/East-of-England-238262.html,KT5,KT5 9PP,3.0,2023-06-26 09:17:45.357332,Semi-Detached,3.0,1.0,101.0,"Raleigh Drive, Surbiton",,
581,600000,2 bedroom flat for sale,"Jerome Place, Kingston, Kingston upon Thames, KT1",http://www.rightmove.co.uk/properties/130879832#/?channel=RES_BUY,http://www.rightmove.co.uk/estate-agents/agent/Foxtons/Kingston-57272.html,KT1,,2.0,2023-06-26 09:17:45.357332,Flat,2.0,2.0,76.0,"Jerome Place, Kingston",,
586,595000,2 bedroom apartment for sale,"Charter Quay, Kingston upon Thames",http://www.rightmove.co.uk/properties/124089554#/?channel=RES_BUY,http://www.rightmove.co.uk/estate-agents/agent/Stack-and-Bonner/Kingston-Upon-Thames-46386.html,,,2.0,2023-06-26 09:17:45.357332,Apartment,2.0,2.0,75.0,"Charter Quay, Kingston upon Thames",51.4090848,-0.3076302
593,585000,2 bedroom flat for sale,"Cobham Road, Kingston, Kingston upon Thames, KT1",http://www.rightmove.co.uk/properties/136075895#/?channel=RES_BUY,http://www.rightmove.co.uk/estate-agents/agent/Foxtons/Kingston-57272.html,KT1,,2.0,2023-06-26 09:17:45.357332,Flat,2.0,2.0,75.0,"Cobham Road, Kingston",51.4109945,-0.2867507
600,1250000,4 bedroom detached house for sale,"Kingston Road, New Malden, KT3",http://www.rightmove.co.uk/properties/134099123#/?channel=RES_BUY,http://www.rightmove.co.uk/estate-agents/agent/Foxtons/New-Malden-149153.html,KT3,,4.0,2023-06-26 09:17:45.357332,Detached,4.0,3.0,239.0,"Kingston Road, New Malden",51.4030199,-0.2730605
606,575000,3 bedroom detached house for sale,"Bond Road, Surbiton",http://www.rightmove.co.uk/properties/131075321#/?channel=RES_BUY,http://www.rightmove.co.uk/estate-agents/agent/Hunters/Surbiton-251504.html,,,3.0,2023-06-26 09:17:45.357332,Detached,3.0,1.0,95.0,"Bond Road, Surbiton",51.3803824,-0.2958557
607,575000,3 bedroom semi-detached house for sale,"Clarence Avenue, New Malden, KT3",http://www.rightmove.co.uk/properties/127277192#/?channel=RES_BUY,http://www.rightmove.co.uk/estate-agents/agent/Foxtons/New-Malden-149153.html,KT3,,3.0,2023-06-26 09:17:45.357332,Semi-Detached,3.0,1.0,74.0,"Clarence Avenue, New Malden",51.4093294,-0.267195
608,575000,2 bedroom flat for sale,"Skerne Road, Kingston, Kingston Upon Thames, KT2",http://www.rightmove.co.uk/properties/130439354#/?channel=RES_BUY,http://www.rightmove.co.uk/estate-agents/agent/Foxtons/Kingston-57272.html,KT2,,2.0,2023-06-26 09:17:45.357332,Flat,2.0,2.0,64.0,"Skerne Road, Kingston",51.4142158,-0.3054047
609,575000,2 bedroom end of terrace house for sale,"Beresford Road, New Malden",http://www.rightmove.co.uk/properties/135635900#/?channel=RES_BUY,http://www.rightmove.co.uk/estate-agents/agent/Hunters/Worcester-Park-142988.html,,,2.0,2023-06-26 09:17:45.357332,End of Terrace,2.0,1.0,80.0,"Beresford Road, New Malden",51.4017914,-0.2720833
614,570000,2 bedroom apartment for sale,"Charter Quay, Kingston Upon Thames",http://www.rightmove.co.uk/properties/132181643#/?channel=RES_BUY,http://www.rightmove.co.uk/estate-agents/agent/Stack-and-Bonner/Kingston-Upon-Thames-46386.html,,,2.0,2023-06-26 09:17:45.357332,Apartment,2.0,2.0,72.0,"Charter Quay, Kingston Upon Thames",51.4090848,-0.3076302
617,564950,3 bedroom semi-detached house for sale,"Church Road, Kingston upon Thames",http://www.rightmove.co.uk/properties/136001294#/?channel=RES_BUY,http://www.rightmove.co.uk/estate-agents/agent/Stack-and-Bonner/Kingston-Upon-Thames-46386.html,,,3.0,2023-06-26 09:17:45.357332,Semi-Detached,3.0,1.0,81.0,"Church Road, Kingston upon Thames",51.3815766,-0.2606296
619,550000,4 bedroom semi-detached house for sale,"Hughenden Road, Worcester Park",http://www.rightmove.co.uk/properties/135774653#/?channel=RES_BUY,http://www.rightmove.co.uk/estate-agents/agent/Hunters/Worcester-Park-142988.html,,,4.0,2023-06-26 09:17:45.357332,Semi-Detached,4.0,1.0,110.0,"Hughenden Road, Worcester Park",,
630,550000,2 bedroom flat for sale,"Seven Kings Way, Kingston, Kingston upon Thames, KT2",http://www.rightmove.co.uk/properties/132526226#/?channel=RES_BUY,http://www.rightmove.co.uk/estate-agents/agent/Foxtons/Kingston-57272.html,KT2,,2.0,2023-06-26 09:17:45.357332,Flat,2.0,2.0,81.0,"Seven Kings Way, Kingston",51.4140367,-0.3031895
632,550000,3 bedroom apartment for sale,"Royal Quarter, Kingston upon Thames",http://www.rightmove.co.uk/properties/133223978#/?channel=RES_BUY,http://www.rightmove.co.uk/estate-agents/agent/Stack-and-Bonner/Kingston-Upon-Thames-46386.html,,,3.0,2023-06-26 09:17:45.357332,Apartment,3.0,2.0,86.0,"Royal Quarter, Kingston upon Thames",51.41380495,-0.3043158182354042
641,550000,2 bedroom terraced house for sale,"Archdale Place, New Malden, KT3",http://www.rightmove.co.uk/properties/134050190#/?channel=RES_BUY,http://www.rightmove.co.uk/estate-agents/agent/Foxtons/New-Malden-149153.html,KT3,,2.0,2023-06-26 09:17:45.357332,Terraced,2.0,1.0,66.0,"Archdale Place, New Malden",51.4052394,-0.2772761
643,550000,2 bedroom apartment for sale,"Charter Quay, Kingston upon Thames",http://www.rightmove.co.uk/properties/126532919#/?channel=RES_BUY,http://www.rightmove.co.uk/estate-agents/agent/Stack-and-Bonner/Kingston-Upon-Thames-46386.html,,,2.0,2023-06-26 09:17:45.357332,Apartment,2.0,2.0,66.0,"Charter Quay, Kingston upon Thames",51.4090848,-0.3076302
659,535000,2 bedroom terraced house for sale,"Burlington Road, New Malden",http://www.rightmove.co.uk/properties/132488999#/?channel=RES_BUY,http://www.rightmove.co.uk/estate-agents/agent/Groves-Residential/New-Malden-74977.html,,,2.0,2023-06-26 09:17:45.357332,Terraced,2.0,1.0,91.0,"Burlington Road, New Malden",51.3991457,-0.2481123
663,530000,3 bedroom terraced house for sale,"College Gardens, New Malden",http://www.rightmove.co.uk/properties/136283477#/?channel=RES_BUY,http://www.rightmove.co.uk/estate-agents/agent/Hunters/Worcester-Park-142988.html,,,3.0,2023-06-26 09:17:45.357332,Terraced,3.0,1.0,101.0,"College Gardens, New Malden",51.3947077,-0.2485529
671,525000,2 bedroom flat for sale,"Blagdon Road, New Malden, KT3",http://www.rightmove.co.uk/properties/135479207#/?channel=RES_BUY,http://www.rightmove.co.uk/estate-agents/agent/Foxtons/New-Malden-149153.html,KT3,,2.0,2023-06-26 09:17:45.357332,Flat,2.0,2.0,71.0,"Blagdon Road, New Malden",51.4004954,-0.2536632
673,525000,2 bedroom flat for sale,"The Anchor Building, Kingston, Kingston Upon Thames, KT2",http://www.rightmove.co.uk/properties/125894903#/?channel=RES_BUY,http://www.rightmove.co.uk/estate-agents/agent/Foxtons/Kingston-57272.html,KT2,,2.0,2023-06-26 09:17:45.357332,Flat,2.0,1.0,67.0,"The Anchor Building, Kingston",,
678,525000,2 bedroom ground maisonette for sale,"Broomfield Road, Surbiton",http://www.rightmove.co.uk/properties/134159804#/?channel=RES_BUY,http://www.rightmove.co.uk/estate-agents/agent/Stack-and-Bonner/Kingston-Upon-Thames-46386.html,,,2.0,2023-06-26 09:17:45.357332,Ground Maisonette,2.0,1.0,67.0,"Broomfield Road, Surbiton",51.385171,-0.2913699
679,525000,2 bedroom apartment for sale,"Charter Quay, Kingston upon Thames",http://www.rightmove.co.uk/properties/123502562#/?channel=RES_BUY,http://www.rightmove.co.uk/estate-agents/agent/Stack-and-Bonner/Kingston-Upon-Thames-46386.html,,,2.0,2023-06-26 09:17:45.357332,Apartment,2.0,1.0,55.0,"Charter Quay, Kingston upon Thames",51.4090848,-0.3076302
686,510000,1 bedroom apartment for sale,"Queenshurst Square, Kingston Upon Thames, Surrey, KT2",http://www.rightmove.co.uk/properties/106419218#/?channel=RES_BUY,http://www.rightmove.co.uk/estate-agents/agent/Lionsgate-Property-Management/London-159428.html,KT2,,1.0,2023-06-26 09:17:45.357332,Apartment,1.0,1.0,51.0,"Queenshurst Square, Kingston Upon Thames",,
693,500000,2 bedroom flat for sale,"Avante Court, Kingston, Kingston upon Thames, KT1",http://www.rightmove.co.uk/properties/85420998#/?channel=RES_BUY,http://www.rightmove.co.uk/estate-agents/agent/Foxtons/Kingston-57272.html,KT1,,2.0,2023-06-26 09:17:45.357332,Flat,2.0,2.0,75.0,"Avante Court, Kingston",,
695,500000,2 bedroom apartment for sale,"Cranes Park, Surbiton",http://www.rightmove.co.uk/properties/134493668#/?channel=RES_BUY,http://www.rightmove.co.uk/estate-agents/agent/Stack-and-Bonner/Kingston-Upon-Thames-46386.html,,,2.0,2023-06-26 09:17:45.357332,Apartment,2.0,1.0,102.0,"Cranes Park, Surbiton",51.3984232,-0.2985249
703,500000,2 bedroom semi-detached house for sale,"Northcote Road, New Malden, KT3",http://www.rightmove.co.uk/properties/134387249#/?channel=RES_BUY,http://www.rightmove.co.uk/estate-agents/agent/Foxtons/New-Malden-149153.html,KT3,,2.0,2023-06-26 09:17:45.357332,Semi-Detached,2.0,1.0,78.0,"Northcote Road, New Malden",51.4034075,-0.2679257
705,500000,2 bedroom detached bungalow for sale,"Douglas Road, Surbiton",http://www.rightmove.co.uk/properties/136184492#/?channel=RES_BUY,http://www.rightmove.co.uk/estate-agents/agent/Hunters/Surbiton-251504.html,,,2.0,2023-06-26 09:17:45.357332,Detached Bungalow,2.0,1.0,59.0,"Douglas Road, Surbiton",51.3815349,-0.2939961
719,495000,3 bedroom maisonette for sale,"Chestnut Grove, New Malden",http://www.rightmove.co.uk/properties/86195787#/?channel=RES_BUY,http://www.rightmove.co.uk/estate-agents/agent/Groves-Residential/New-Malden-74977.html,,,3.0,2023-06-26 09:17:45.357332,Maisonette,3.0,1.0,63.0,"Chestnut Grove, New Malden",51.4051096,-0.2613395
728,479995,1 bedroom apartment for sale,"Yorke House, Wheatfield Way, Kingston Upon Thames, KT1",http://www.rightmove.co.uk/properties/135346091#/?channel=RES_BUY,http://www.rightmove.co.uk/estate-agents/agent/DCS-Residential/London-256874.html,KT1,,1.0,2023-06-26 09:17:45.357332,Apartment,1.0,1.0,48.0,"Yorke House, Wheatfield Way",,
750,1450000,5 bedroom detached house for sale,"Staunton Road, North Kingston, Kingston upon Thames, KT2",http://www.rightmove.co.uk/properties/136186907#/?channel=RES_BUY,http://www.rightmove.co.uk/estate-agents/agent/Foxtons/Kingston-57272.html,KT2,,5.0,2023-06-26 09:17:45.357332,Detached,5.0,2.0,153.0,"Staunton Road, North Kingston",,
756,475000,3 bedroom end of terrace house for sale,"Drake Road, Chessington",http://www.rightmove.co.uk/properties/135933092#/?channel=RES_BUY,http://www.rightmove.co.uk/estate-agents/agent/The-Personal-Agent/Stoneleigh-27960.html,,,3.0,2023-06-26 09:17:45.357332,End of Terrace,3.0,1.0,79.0,"Drake Road, Chessington",51.365534,-0.2864414
763,465000,2 bedroom flat for sale,"Richmond Road, Kingston Upon Thames",http://www.rightmove.co.uk/properties/135742538#/?channel=RES_BUY,http://www.rightmove.co.uk/estate-agents/agent/Gibson-Lane/Ham-64095.html,,,2.0,2023-06-26 09:17:45.357332,Flat,2.0,2.0,82.0,"Richmond Road, Kingston Upon Thames",51.4266736,-0.3058135
774,450000,2 bedroom maisonette for sale,"Cranes Park, Surbiton, KT5",http://www.rightmove.co.uk/properties/135616832#/?channel=RES_BUY,http://www.rightmove.co.uk/estate-agents/agent/Chancellors/Surbiton-30503.html,KT5,,2.0,2023-06-26 09:17:45.357332,Maisonette,2.0,1.0,65.0,"Cranes Park, Surbiton",51.3984232,-0.2985249
776,450000,2 bedroom flat for sale,"Kingston Road, New Malden, KT3",http://www.rightmove.co.uk/properties/131079146#/?channel=RES_BUY,http://www.rightmove.co.uk/estate-agents/agent/Foxtons/New-Malden-149153.html,KT3,,2.0,2023-06-26 09:17:45.357332,Flat,2.0,1.0,58.0,"Kingston Road, New Malden",51.4030199,-0.2730605
777,450000,2 bedroom flat for sale,"Kingston Road, New Malden, KT3",http://www.rightmove.co.uk/properties/131079143#/?channel=RES_BUY,http://www.rightmove.co.uk/estate-agents/agent/Foxtons/New-Malden-149153.html,KT3,,2.0,2023-06-26 09:17:45.357332,Flat,2.0,1.0,64.0,"Kingston Road, New Malden",51.4030199,-0.2730605
786,450000,3 bedroom flat for sale,"Sycamore Grove, New Malden, KT3",http://www.rightmove.co.uk/properties/131229680#/?channel=RES_BUY,http://www.rightmove.co.uk/estate-agents/agent/Foxtons/New-Malden-149153.html,KT3,,3.0,2023-06-26 09:17:45.357332,Flat,3.0,1.0,82.0,"Sycamore Grove, New Malden",51.4070914,-0.2603185
789,450000,2 bedroom flat for sale,"Park Road, KT2, North Kingston, Kingston upon Thames, KT2",http://www.rightmove.co.uk/properties/136453961#/?channel=RES_BUY,http://www.rightmove.co.uk/estate-agents/agent/Foxtons/Kingston-57272.html,KT2,,2.0,2023-06-26 09:17:45.357332,Flat,2.0,1.0,60.0,"Park Road, KT2",51.4234377,-0.2901614
810,435000,2 bedroom flat for sale,"Skerne Road, Kingston, Kingston Upon Thames, KT2",http://www.rightmove.co.uk/properties/131648423#/?channel=RES_BUY,http://www.rightmove.co.uk/estate-agents/agent/Foxtons/Kingston-57272.html,KT2,,2.0,2023-06-26 09:17:45.357332,Flat,2.0,2.0,74.0,"Skerne Road, Kingston",51.4142158,-0.3054047
817,425000,2 bedroom flat for sale,"The Royal Gallery, Kingston, Kingston Upon Thames, KT2",http://www.rightmove.co.uk/properties/132898931#/?channel=RES_BUY,http://www.rightmove.co.uk/estate-agents/agent/Foxtons/Kingston-57272.html,KT2,,2.0,2023-06-26 09:17:45.357332,Flat,2.0,2.0,72.0,"The Royal Gallery, Kingston",,
829,425000,2 bedroom apartment for sale,"London Road, Kingston upon Thames, Surrey, KT2",http://www.rightmove.co.uk/properties/132749198#/?channel=RES_BUY,http://www.rightmove.co.uk/estate-agents/agent/Lucie-White-and-Company/London---Sales-225416.html,KT2,,2.0,2023-06-26 09:17:45.357332,Apartment,2.0,2.0,63.0,"London Road, Kingston upon Thames",51.4109269,-0.2918367
832,425000,1 bedroom apartment for sale,"Langley Road, Surbiton, KT6 6BA",http://www.rightmove.co.uk/properties/133434533#/?channel=RES_BUY,http://www.rightmove.co.uk/estate-agents/agent/Robert-Leech-Estate-Agents/Oxted-3282.html,KT6,KT6 6BA,1.0,2023-06-26 09:17:45.357332,Apartment,1.0,1.0,51.0,"Langley Road, Surbiton",51.3884553,-0.2991286
833,425000,2 bedroom terraced house for sale,"Vale Road South, Surbiton, KT6 5AQ",http://www.rightmove.co.uk/properties/134322554#/?channel=RES_BUY,http://www.rightmove.co.uk/estate-agents/agent/eXp-UK/East-of-England-238262.html,KT6,KT6 5AQ,2.0,2023-06-26 09:17:45.357332,Terraced,2.0,1.0,50.0,"Vale Road South, Surbiton",,
835,425000,3 bedroom flat for sale,"Burwood Close, Tolworth, Surbiton, KT6",http://www.rightmove.co.uk/properties/135652391#/?channel=RES_BUY,http://www.rightmove.co.uk/estate-agents/agent/Foxtons/Kingston-57272.html,KT6,,3.0,2023-06-26 09:17:45.357332,Flat,3.0,1.0,87.0,"Burwood Close, Tolworth",51.3813231,-0.2844471
849,400000,2 bedroom flat for sale,"Crescent Road, KT2, Kingston, Kingston upon Thames, KT2",http://www.rightmove.co.uk/properties/133775537#/?channel=RES_BUY,http://www.rightmove.co.uk/estate-agents/agent/Foxtons/Kingston-57272.html,KT2,,2.0,2023-06-26 09:17:45.357332,Flat,2.0,1.0,63.0,"Crescent Road, KT2",51.4202474,-0.2787176
851,400000,2 bedroom flat for sale,"Crescent Road, KT2, Kingston, Kingston upon Thames, KT2",http://www.rightmove.co.uk/properties/133775537#/?channel=RES_BUY,http://www.rightmove.co.uk/estate-agents/agent/Foxtons/Kingston-57272.html,KT2,,2.0,2023-06-26 09:17:45.357332,Flat,2.0,1.0,63.0,"Crescent Road, KT2",51.4202474,-0.2787176
852,400000,2 bedroom maisonette for sale,"Hook Road, Surbiton, KT6",http://www.rightmove.co.uk/properties/135228872#/?channel=RES_BUY,http://www.rightmove.co.uk/estate-agents/agent/Foxtons/Kingston-57272.html,KT6,,2.0,2023-06-26 09:17:45.357332,Maisonette,2.0,1.0,61.0,"Hook Road, Surbiton",51.3813248,-0.3012504
859,400000,2 bedroom flat for sale,"Kingston Road, New Malden, KT3",http://www.rightmove.co.uk/properties/131079149#/?channel=RES_BUY,http://www.rightmove.co.uk/estate-agents/agent/Foxtons/New-Malden-149153.html,KT3,,2.0,2023-06-26 09:17:45.357332,Flat,2.0,1.0,58.0,"Kingston Road, New Malden",51.4030199,-0.2730605
870,400000,1 bedroom flat for sale,"Richmond Road, Kingston Upon Thames, KT2",http://www.rightmove.co.uk/properties/135186839#/?channel=RES_BUY,http://www.rightmove.co.uk/estate-agents/agent/Chancellors/Surbiton-30503.html,KT2,,1.0,2023-06-26 09:17:45.357332,Flat,1.0,1.0,64.0,"Richmond Road, Kingston Upon Thames",51.4266736,-0.3058135
901,395000,1 bedroom flat for sale,"The Avenue, Surbiton, KT5",http://www.rightmove.co.uk/properties/131885531#/?channel=RES_BUY,http://www.rightmove.co.uk/estate-agents/agent/Foxtons/Kingston-57272.html,KT5,,1.0,2023-06-26 09:17:45.357332,Flat,1.0,1.0,64.0,"The Avenue, Surbiton",51.3904904,-0.2916897
910,385000,2 bedroom flat for sale,"Cranes Drive, Surbiton",http://www.rightmove.co.uk/properties/132878468#/?channel=RES_BUY,http://www.rightmove.co.uk/estate-agents/agent/Hunters/Surbiton-251504.html,,,2.0,2023-06-26 09:17:45.357332,Flat,2.0,1.0,63.0,"Cranes Drive, Surbiton",51.39877,-0.2977112
931,375000,3 bedroom maisonette for sale,"Hook Road, Surbiton",http://www.rightmove.co.uk/properties/128692112#/?channel=RES_BUY,http://www.rightmove.co.uk/estate-agents/agent/Hunters/Surbiton-251504.html,,,3.0,2023-06-26 09:17:45.357332,Maisonette,3.0,1.0,96.0,"Hook Road, Surbiton",51.3813248,-0.3012504
933,375000,1 bedroom apartment for sale,"River Walk, Kingston upon Thames",http://www.rightmove.co.uk/properties/132845537#/?channel=RES_BUY,http://www.rightmove.co.uk/estate-agents/agent/Stack-and-Bonner/Kingston-Upon-Thames-46386.html,,,1.0,2023-06-26 09:17:45.357332,Apartment,1.0,1.0,54.0,"River Walk, Kingston upon Thames",,
934,375000,2 bedroom maisonette for sale,"Villiers Close, Surbiton, KT5",http://www.rightmove.co.uk/properties/133761167#/?channel=RES_BUY,http://www.rightmove.co.uk/estate-agents/agent/Chancellors/Surbiton-30503.html,KT5,,2.0,2023-06-26 09:17:45.357332,Maisonette,2.0,1.0,41.0,"Villiers Close, Surbiton",51.4007712,-0.292704
938,375000,2 bedroom maisonette for sale,"Hook Road, Surbiton, KT6",http://www.rightmove.co.uk/properties/132620120#/?channel=RES_BUY,http://www.rightmove.co.uk/estate-agents/agent/Chancellors/Surbiton-30503.html,KT6,,2.0,2023-06-26 09:17:45.357332,Maisonette,2.0,1.0,106.0,"Hook Road, Surbiton",51.3813248,-0.3012504
940,375000,2 bedroom flat for sale,"Windsor Avenue, New Malden, KT3",http://www.rightmove.co.uk/properties/132784214#/?channel=RES_BUY,http://www.rightmove.co.uk/estate-agents/agent/Foxtons/New-Malden-149153.html,KT3,,2.0,2023-06-26 09:17:45.357332,Flat,2.0,1.0,80.0,"Windsor Avenue, New Malden",51.3950395,-0.2705707
941,375000,2 bedroom flat for sale,"Lambourn Grove, Kingston Upon Thames",http://www.rightmove.co.uk/properties/136157270#/?channel=RES_BUY,http://www.rightmove.co.uk/estate-agents/agent/Hunters/Surbiton-251504.html,,,2.0,2023-06-26 09:17:45.357332,Flat,2.0,1.0,51.0,"Lambourn Grove, Kingston Upon Thames",51.4113441,-0.2799724
950,835000,2 bedroom apartment for sale,"Kingston Riverside, Kingston upon Thames",http://www.rightmove.co.uk/properties/131497424#/?channel=RES_BUY,http://www.rightmove.co.uk/estate-agents/agent/Stack-and-Bonner/Kingston-Upon-Thames-46386.html,,,2.0,2023-06-26 09:17:45.357332,Apartment,2.0,2.0,85.0,"Kingston Riverside, Kingston upon Thames",51.4141767,-0.3067565841877262
952,375000,2 bedroom apartment for sale,"Park Road, Kingston",http://www.rightmove.co.uk/properties/135451220#/?channel=RES_BUY,http://www.rightmove.co.uk/estate-agents/agent/Saxon-Kings/Kingston-Upon-Thames-75539.html,,,2.0,2023-06-26 09:17:45.357332,Apartment,2.0,1.0,76.0,"Park Road, Kingston",53.4536958,-2.1154529
964,365000,2 bedroom flat for sale,"Galsworthy Road, KT2, Kingston Hill, Kingston upon Thames, KT2",http://www.rightmove.co.uk/properties/135304289#/?channel=RES_BUY,http://www.rightmove.co.uk/estate-agents/agent/Foxtons/Kingston-57272.html,KT2,,2.0,2023-06-26 09:17:45.357332,Flat,2.0,1.0,72.0,"Galsworthy Road, KT2",51.4157451,-0.2809044
965,365000,2 bedroom apartment for sale,Birkenhead Avenue,http://www.rightmove.co.uk/properties/132371375#/?channel=RES_BUY,http://www.rightmove.co.uk/estate-agents/agent/Saxon-Kings/Kingston-Upon-Thames-75539.html,,,2.0,2023-06-26 09:17:45.357332,Apartment,2.0,1.0,63.0,Birkenhead Avenue,51.4119167,-0.2906321
975,175000,1 bedroom retirement property for sale,"Clayton Road, Chessington",http://www.rightmove.co.uk/properties/136314371#/?channel=RES_BUY,http://www.rightmove.co.uk/estate-agents/agent/Rice-and-Roman/Esher-93448.html,,,1.0,2023-06-26 09:17:45.357332,Retirement Property,1.0,1.0,39.0,"Clayton Road, Chessington",51.3666212,-0.3070364
981,350000,2 bedroom flat for sale,"Kingston Road, New Malden, KT3",http://www.rightmove.co.uk/properties/131079155#/?channel=RES_BUY,http://www.rightmove.co.uk/estate-agents/agent/Foxtons/New-Malden-149153.html,KT3,,2.0,2023-06-26 09:17:45.357332,Flat,2.0,1.0,53.0,"Kingston Road, New Malden",51.4030199,-0.2730605
983,350000,2 bedroom maisonette for sale,"Cambridge Road, Kingston Upon Thames",http://www.rightmove.co.uk/properties/133275722#/?channel=RES_BUY,http://www.rightmove.co.uk/estate-agents/agent/Hunters/Surbiton-251504.html,,,2.0,2023-06-26 09:17:45.357332,Maisonette,2.0,1.0,46.0,"Cambridge Road, Kingston Upon Thames",51.40797,-0.284538
989,350000,2 bedroom flat for sale,"Park Close, North Kingston, Kingston upon Thames, KT2",http://www.rightmove.co.uk/properties/136329707#/?channel=RES_BUY,http://www.rightmove.co.uk/estate-agents/agent/Foxtons/Kingston-57272.html,KT2,,2.0,2023-06-26 09:17:45.357332,Flat,2.0,1.0,47.0,"Park Close, North Kingston",54.3388592,-1.4390844
995,350000,1 bedroom flat for sale,"Royal Quarter, Kingston, Kingston upon Thames, KT2",http://www.rightmove.co.uk/properties/85685124#/?channel=RES_BUY,http://www.rightmove.co.uk/estate-agents/agent/Foxtons/Kingston-57272.html,KT2,,1.0,2023-06-26 09:17:45.357332,Flat,1.0,1.0,41.0,"Royal Quarter, Kingston",51.41380495,-0.3043158182354042
997,350000,1 bedroom flat for sale,"Montem Road, New Malden, KT3",http://www.rightmove.co.uk/properties/126092585#/?channel=RES_BUY,http://www.rightmove.co.uk/estate-agents/agent/Foxtons/New-Malden-149153.html,KT3,,1.0,2023-06-26 09:17:45.357332,Flat,1.0,1.0,45.0,"Montem Road, New Malden",51.4009891,-0.2613327
1004,348000,1 bedroom apartment for sale,"Royal Quarter, Kingston upon Thames",http://www.rightmove.co.uk/properties/130984184#/?channel=RES_BUY,http://www.rightmove.co.uk/estate-agents/agent/Stack-and-Bonner/Kingston-Upon-Thames-46386.html,,,1.0,2023-06-26 09:17:45.357332,Apartment,1.0,1.0,43.0,"Royal Quarter, Kingston upon Thames",51.41380495,-0.3043158182354042
1011,340000,2 bedroom flat for sale,"Kingsnympton Park, Kingston Upon Thames KT2",http://www.rightmove.co.uk/properties/123410813#/?channel=RES_BUY,http://www.rightmove.co.uk/estate-agents/agent/Move-Inn-Estates/Heston-113317.html,KT2,,2.0,2023-06-26 09:17:45.357332,Flat,2.0,1.0,70.0,"Kingsnympton Park, Kingston Upon Thames KT2",,
1033,325000,2 bedroom flat for sale,"Oak Hill Grove, Surbiton, KT6",http://www.rightmove.co.uk/properties/126399374#/?channel=RES_BUY,http://www.rightmove.co.uk/estate-agents/agent/Chancellors/Surbiton-30503.html,KT6,,2.0,2023-06-26 09:17:45.357332,Flat,2.0,1.0,60.0,"Oak Hill Grove, Surbiton",51.3899752,-0.3028499
1034,325000,1 bedroom maisonette for sale,"Surbiton, Surrey, KT6",http://www.rightmove.co.uk/properties/133891475#/?channel=RES_BUY,http://www.rightmove.co.uk/estate-agents/agent/Chancellors/Surbiton-30503.html,KT6,,1.0,2023-06-26 09:17:45.357332,Maisonette,1.0,1.0,45.0,"Surbiton, Surrey",51.4048821,-0.30519925548053134
1036,325000,1 bedroom flat for sale,"Denmark Road, Kingston, Kingston upon Thames, KT1",http://www.rightmove.co.uk/properties/136509944#/?channel=RES_BUY,http://www.rightmove.co.uk/estate-agents/agent/Foxtons/Kingston-57272.html,KT1,,1.0,2023-06-26 09:17:45.357332,Flat,1.0,1.0,42.0,"Denmark Road, Kingston",51.4047958,-0.3017124
1042,325000,1 bedroom flat for sale,"Claremont Gardens, Surbiton, KT6",http://www.rightmove.co.uk/properties/131692811#/?channel=RES_BUY,http://www.rightmove.co.uk/estate-agents/agent/Chancellors/Surbiton-30503.html,KT6,,1.0,2023-06-26 09:17:45.357332,Flat,1.0,1.0,44.0,"Claremont Gardens, Surbiton",51.395681550000006,-0.30448723233152064
