Unnamed: 0,price,type,address,url,agent_url,postcode,full_postcode,number_bedrooms,search_date,property_type,bedrooms,bathrooms,size_square_meters,new_address,latitude,longitude
6,1299999,5 bedroom detached house for sale,"Priestlands Park Road, Sidcup, Kent, DA15",http://www.rightmove.co.uk/properties/136387298#/?channel=RES_BUY,http://www.rightmove.co.uk/estate-agents/agent/Capital-Estate-Agents/Sidcup-43142.html,DA15,,5.0,2023-06-26 15:50:02.781302,Detached,5.0,3.0,295.0,"Priestlands Park Road, Sidcup",51.4288751,0.0961915
20,1000000,4 bedroom detached house for sale,"Acacia Way, Sidcup, Kent, DA15",http://www.rightmove.co.uk/properties/132710018#/?channel=RES_BUY,http://www.rightmove.co.uk/estate-agents/agent/Kallars/Sidcup-80169.html,DA15,,4.0,2023-06-26 15:50:02.781302,Detached,4.0,3.0,174.0,"Acacia Way, Sidcup",51.442451,0.0996282
24,950000,4 bedroom semi-detached house for sale,"Old Forge Way, Sidcup, DA14",http://www.rightmove.co.uk/properties/133731869#/?channel=RES_BUY,http://www.rightmove.co.uk/estate-agents/agent/Kallars/Sidcup-80169.html,DA14,,4.0,2023-06-26 15:50:02.781302,Semi-Detached,4.0,2.0,148.0,"Old Forge Way, Sidcup",51.4241145,0.1092938
28,925000,4 bedroom detached house for sale,"Upton Road South, Bexley, DA5 1QU",http://www.rightmove.co.uk/properties/136126154#/?channel=RES_BUY,http://www.rightmove.co.uk/estate-agents/agent/James-Gorey-Estate-Agents/Sidcup-220718.html,DA5,DA5 1QU,4.0,2023-06-26 15:50:02.781302,Detached,4.0,2.0,156.0,"Upton Road South, Bexley",51.4447321,0.1422726
30,900000,4 bedroom detached house for sale,"Rennets Close, London, SE9",http://www.rightmove.co.uk/properties/136450193#/?channel=RES_BUY,http://www.rightmove.co.uk/estate-agents/agent/Cockburn-Estate-Agents/Mottingham--Sales-17465.html,SE9,,4.0,2023-06-26 15:50:02.781302,Detached,4.0,1.0,189.0,"Rennets Close, London",51.4528791,0.0859041
37,875000,4 bedroom semi-detached house for sale,"Longmead Drive, Sidcup, Kent, DA14",http://www.rightmove.co.uk/properties/134573630#/?channel=RES_BUY,http://www.rightmove.co.uk/estate-agents/agent/Capital-Estate-Agents/Sidcup-43142.html,DA14,,4.0,2023-06-26 15:50:02.781302,Semi-Detached,4.0,2.0,187.0,"Longmead Drive, Sidcup",51.4345444,0.1230886
42,850000,4 bedroom semi-detached house for sale,"Halfway Street, Sidcup DA15",http://www.rightmove.co.uk/properties/127912790#/?channel=RES_BUY,http://www.rightmove.co.uk/estate-agents/agent/Bernard-Skinner/Eltham-23597.html,DA15,,4.0,2023-06-26 15:50:02.781302,Semi-Detached,4.0,1.0,187.0,"Halfway Street, Sidcup DA15",51.4362639,0.0947781
53,800000,4 bedroom detached house for sale,"Bond Close, Welling",http://www.rightmove.co.uk/properties/134841977#/?channel=RES_BUY,http://www.rightmove.co.uk/estate-agents/agent/Hunters/Bexleyheath-4311.html,,,4.0,2023-06-26 15:50:02.781302,Detached,4.0,2.0,151.0,"Bond Close, Welling",51.4680423,0.0892994
82,735000,3 bedroom semi-detached house for sale,"St. Johns Road, Sidcup, Kent, DA14",http://www.rightmove.co.uk/properties/136183724#/?channel=RES_BUY,http://www.rightmove.co.uk/estate-agents/agent/Capital-Estate-Agents/Sidcup-43142.html,DA14,,3.0,2023-06-26 15:50:02.781302,Semi-Detached,3.0,3.0,61.0,"St. Johns Road, Sidcup",51.4287396,0.1084755
83,725000,5 bedroom semi-detached house for sale,"Telford Road, London, SE9",http://www.rightmove.co.uk/properties/136450256#/?channel=RES_BUY,http://www.rightmove.co.uk/estate-agents/agent/Cockburn-Estate-Agents/Mottingham--Sales-17465.html,SE9,,5.0,2023-06-26 15:50:02.781302,Semi-Detached,5.0,3.0,144.0,"Telford Road, London",51.6149114,-0.1281847
88,725000,4 bedroom detached house for sale,"Melrose Avenue, Braeburn Park, Crayford, Kent",http://www.rightmove.co.uk/properties/132844652#/?channel=RES_BUY,http://www.rightmove.co.uk/estate-agents/agent/Livermores-The-Estate-Agents/Crayford-14149.html,,,4.0,2023-06-26 15:50:02.781302,Detached,4.0,4.0,157.0,"Melrose Avenue, Braeburn Park",,
125,900000,4 bedroom detached house for sale,"Rennets Close, London, SE9",http://www.rightmove.co.uk/properties/136450193#/?channel=RES_BUY,http://www.rightmove.co.uk/estate-agents/agent/Cockburn-Estate-Agents/Mottingham--Sales-17465.html,SE9,,4.0,2023-06-26 15:50:02.781302,Detached,4.0,1.0,189.0,"Rennets Close, London",51.4528791,0.0859041
131,675000,4 bedroom semi-detached bungalow for sale,"Albany Close, Bexley, DA5 3ES",http://www.rightmove.co.uk/properties/86157582#/?channel=RES_BUY,http://www.rightmove.co.uk/estate-agents/agent/James-Gorey-Estate-Agents/Sidcup-220718.html,DA5,DA5 3ES,4.0,2023-06-26 15:50:02.781302,Semi-Detached Bungalow,4.0,1.0,127.0,"Albany Close, Bexley",51.4431101,0.1212524
133,675000,4 bedroom semi-detached house for sale,"West Heath Road, Upper SE2   * VIDEO & 3D FLOORPLAN AVAILABLE *",http://www.rightmove.co.uk/properties/128231816#/?channel=RES_BUY,http://www.rightmove.co.uk/estate-agents/agent/Able-Estates/South-East-London-8201.html,SE2,,4.0,2023-06-26 15:50:02.781302,Semi-Detached,4.0,1.0,134.0,"West Heath Road, Upper SE2   * VIDEO & 3D FLOORPLAN AVAILABLE *",,
141,650000,3 bedroom semi-detached house for sale,"Durham Road, Sidcup, Kent, DA14",http://www.rightmove.co.uk/properties/134536076#/?channel=RES_BUY,http://www.rightmove.co.uk/estate-agents/agent/Kallars/Sidcup-80169.html,DA14,,3.0,2023-06-26 15:50:02.781302,Semi-Detached,3.0,1.0,109.0,"Durham Road, Sidcup",51.422159,0.1084596
146,650000,5 bedroom semi-detached house for sale,"Chastilian Road, Dartford",http://www.rightmove.co.uk/properties/136034561#/?channel=RES_BUY,http://www.rightmove.co.uk/estate-agents/agent/Livermores-The-Estate-Agents/Dartford-14155.html,,,5.0,2023-06-26 15:50:02.781302,Semi-Detached,5.0,2.0,113.0,"Chastilian Road, Dartford",51.4430536,0.1889514
148,650000,4 bedroom semi-detached house for sale,"Cleveland Road, Welling, Kent, DA16 3JP",http://www.rightmove.co.uk/properties/133341059#/?channel=RES_BUY,http://www.rightmove.co.uk/estate-agents/agent/Hunters/Bexleyheath-4311.html,DA16,DA16 3JP,4.0,2023-06-26 15:50:02.781302,Semi-Detached,4.0,2.0,151.0,"Cleveland Road, Welling",51.4657968,0.0984748
159,650000,5 bedroom semi-detached house for sale,"Manor Road, Crayford, Kent",http://www.rightmove.co.uk/properties/135014144#/?channel=RES_BUY,http://www.rightmove.co.uk/estate-agents/agent/Livermores-The-Estate-Agents/Crayford-14149.html,,,5.0,2023-06-26 15:50:02.781302,Semi-Detached,5.0,1.0,184.0,"Manor Road, Crayford",51.455782,0.1726692
188,620000,3 bedroom end of terrace house for sale,"Cradley Road, New Eltham SE9",http://www.rightmove.co.uk/properties/134994989#/?channel=RES_BUY,http://www.rightmove.co.uk/estate-agents/agent/Bernard-Skinner/Eltham-23597.html,SE9,,3.0,2023-06-26 15:50:02.781302,End of Terrace,3.0,1.0,134.0,"Cradley Road, New Eltham SE9",,
240,580000,4 bedroom semi-detached house for sale,"Coniston Road, Bexleyheath, Kent, DA7",http://www.rightmove.co.uk/properties/136344854#/?channel=RES_BUY,http://www.rightmove.co.uk/estate-agents/agent/The-Property-Cloud/North-Kent-and-South-East-London-109346.html,DA7,,4.0,2023-06-26 15:50:02.781302,Semi-Detached,4.0,2.0,137.0,"Coniston Road, Bexleyheath",51.4685838,0.1616558
275,395000,2 bedroom semi-detached house for sale,"Bradenham Avenue, Welling, Kent, DA16",http://www.rightmove.co.uk/properties/136525202#/?channel=RES_BUY,http://www.rightmove.co.uk/estate-agents/agent/The-Property-Cloud/North-Kent-and-South-East-London-109346.html,DA16,,2.0,2023-06-26 15:50:02.781302,Semi-Detached,2.0,1.0,71.0,"Bradenham Avenue, Welling",51.4583871,0.1037389
281,550000,3 bedroom semi-detached house for sale,"Arcadian Avenue, Bexley, DA5 1JW",http://www.rightmove.co.uk/properties/135031181#/?channel=RES_BUY,http://www.rightmove.co.uk/estate-agents/agent/James-Gorey-Estate-Agents/Sidcup-220718.html,DA5,DA5 1JW,3.0,2023-06-26 15:50:02.781302,Semi-Detached,3.0,1.0,93.0,"Arcadian Avenue, Bexley",51.4476825,0.1308661
287,550000,3 bedroom detached house for sale,"Greenhaven Drive, Thamesmead, SE28 8FR",http://www.rightmove.co.uk/properties/135788591#/?channel=RES_BUY,http://www.rightmove.co.uk/estate-agents/agent/James-Gorey-Estate-Agents/Sidcup-220718.html,SE28,SE28 8FR,3.0,2023-06-26 15:50:02.781302,Detached,3.0,2.0,107.0,"Greenhaven Drive, Thamesmead",51.5090589,0.1148178
297,550000,3 bedroom semi-detached house for sale,"Dashwood Close, South Bexleyheath",http://www.rightmove.co.uk/properties/135631169#/?channel=RES_BUY,http://www.rightmove.co.uk/estate-agents/agent/Hunters/Bexleyheath-4311.html,,,3.0,2023-06-26 15:50:02.781302,Semi-Detached,3.0,1.0,101.0,"Dashwood Close, South Bexleyheath",,
309,550000,3 bedroom house for sale,"Oaklands Road, Bexleyheath",http://www.rightmove.co.uk/properties/136173863#/?channel=RES_BUY,http://www.rightmove.co.uk/estate-agents/agent/Murray-Lee-Mckenzie/Belvedere-249608.html,,,3.0,2023-06-26 15:50:02.781302,House,3.0,1.0,109.0,"Oaklands Road, Bexleyheath",51.4549492,0.1394843
313,550000,4 bedroom end of terrace house for sale,"Richmer Road, Erith, DA8 2HN",http://www.rightmove.co.uk/properties/133418363#/?channel=RES_BUY,http://www.rightmove.co.uk/estate-agents/agent/James-Gorey-Estate-Agents/Sidcup-220718.html,DA8,DA8 2HN,4.0,2023-06-26 15:50:02.781302,End of Terrace,4.0,3.0,117.0,"Richmer Road, Erith",51.4728662,0.187536
332,535000,3 bedroom semi-detached house for sale,"Tavistock Road, Welling",http://www.rightmove.co.uk/properties/136265207#/?channel=RES_BUY,http://www.rightmove.co.uk/estate-agents/agent/Hunters/Bexleyheath-4311.html,,,3.0,2023-06-26 15:50:02.781302,Semi-Detached,3.0,2.0,128.0,"Tavistock Road, Welling",51.4702847,0.1181534
346,525000,3 bedroom semi-detached house for sale,"Erith Road, Bexleyheath",http://www.rightmove.co.uk/properties/134975675#/?channel=RES_BUY,http://www.rightmove.co.uk/estate-agents/agent/Hunters/Bexleyheath-4311.html,,,3.0,2023-06-26 15:50:02.781302,Semi-Detached,3.0,1.0,115.0,"Erith Road, Bexleyheath",51.4850749,0.1559284
350,395000,2 bedroom semi-detached house for sale,"Bradenham Avenue, Welling, Kent, DA16",http://www.rightmove.co.uk/properties/136525202#/?channel=RES_BUY,http://www.rightmove.co.uk/estate-agents/agent/The-Property-Cloud/North-Kent-and-South-East-London-109346.html,DA16,,2.0,2023-06-26 15:50:02.781302,Semi-Detached,2.0,1.0,71.0,"Bradenham Avenue, Welling",51.4583871,0.1037389
356,525000,3 bedroom semi-detached house for sale,"Eltham, London",http://www.rightmove.co.uk/properties/132503120#/?channel=RES_BUY,http://www.rightmove.co.uk/estate-agents/agent/The-Homes-Group/Greenhithe-249293.html,,,3.0,2023-06-26 15:50:02.781302,Semi-Detached,3.0,1.0,105.0,"Eltham, London",51.4505687,0.0541253
364,525000,4 bedroom semi-detached house for sale,"Woolbrook Road, Crayford, Dartford, Kent, DA1",http://www.rightmove.co.uk/properties/132576053#/?channel=RES_BUY,http://www.rightmove.co.uk/estate-agents/agent/The-Property-Cloud/North-Kent-and-South-East-London-109346.html,DA1,,4.0,2023-06-26 15:50:02.781302,Semi-Detached,4.0,3.0,109.0,"Woolbrook Road, Crayford",51.4451714,0.1757134
368,525000,3 bedroom house for sale,"Eardley Road, Belvedere",http://www.rightmove.co.uk/properties/134975945#/?channel=RES_BUY,http://www.rightmove.co.uk/estate-agents/agent/Murray-Lee-Mckenzie/Belvedere-249608.html,,,3.0,2023-06-26 15:50:02.781302,House,3.0,2.0,119.0,"Eardley Road, Belvedere",51.4849119,0.1503908
369,525000,4 bedroom semi-detached house for sale,"Waltham Close, Dartford",http://www.rightmove.co.uk/properties/136036484#/?channel=RES_BUY,http://www.rightmove.co.uk/estate-agents/agent/Livermores-The-Estate-Agents/Dartford-14155.html,,,4.0,2023-06-26 15:50:02.781302,Semi-Detached,4.0,1.0,91.0,"Waltham Close, Dartford",51.4481991,0.1885067
387,525000,3 bedroom house for sale,"Sandy Road, Erith",http://www.rightmove.co.uk/properties/133193378#/?channel=RES_BUY,http://www.rightmove.co.uk/estate-agents/agent/Hunters/Bexleyheath-4311.html,,,3.0,2023-06-26 15:50:02.781302,House,3.0,2.0,128.0,"Sandy Road, Erith",51.4818007,0.164932
393,515000,3 bedroom house for sale,"Wyncham Avenue, Sidcup, DA15 8ER",http://www.rightmove.co.uk/properties/135317777#/?channel=RES_BUY,http://www.rightmove.co.uk/estate-agents/agent/Redwood-Estates/Royal-Arsenal-34445.html,DA15,DA15 8ER,3.0,2023-06-26 15:50:02.781302,House,3.0,1.0,75.0,"Wyncham Avenue, Sidcup",51.4407718,0.091881
457,495000,4 bedroom terraced house for sale,"Mount Culver Avenue, Sidcup, Kent, DA14",http://www.rightmove.co.uk/properties/135284693#/?channel=RES_BUY,http://www.rightmove.co.uk/estate-agents/agent/Capital-Estate-Agents/Sidcup-43142.html,DA14,,4.0,2023-06-26 15:50:02.781302,Terraced,4.0,1.0,131.0,"Mount Culver Avenue, Sidcup",51.4164658,0.125936
501,475000,3 bedroom semi-detached house for sale,"Ivedon Road, Welling, Kent, DA16",http://www.rightmove.co.uk/properties/136273181#/?channel=RES_BUY,http://www.rightmove.co.uk/estate-agents/agent/The-Property-Cloud/North-Kent-and-South-East-London-109346.html,DA16,,3.0,2023-06-26 15:50:02.781302,Semi-Detached,3.0,1.0,71.0,"Ivedon Road, Welling",51.4659789,0.1186153
507,465000,3 bedroom semi-detached house for sale,"Woolwich Road, Bexleyheath, DA7 4HT",http://www.rightmove.co.uk/properties/134646167#/?channel=RES_BUY,http://www.rightmove.co.uk/estate-agents/agent/Hunters/Bexleyheath-4311.html,DA7,DA7 4HT,3.0,2023-06-26 15:50:02.781302,Semi-Detached,3.0,1.0,93.0,"Woolwich Road, Bexleyheath",51.4813589,0.1226046
516,465000,3 bedroom terraced house for sale,"Bexley Lane, Dartford, DA1",http://www.rightmove.co.uk/properties/135943547#/?channel=RES_BUY,http://www.rightmove.co.uk/estate-agents/agent/Kallars/Sidcup-80169.html,DA1,,3.0,2023-06-26 15:50:02.781302,Terraced,3.0,1.0,120.0,"Bexley Lane, Dartford",51.4369564,0.1795363
520,455000,3 bedroom house for sale,"Northumberland Park, Northumberland Heath  * VIDEO & 3D FLOORPLAN AVAILABLE *",http://www.rightmove.co.uk/properties/131614154#/?channel=RES_BUY,http://www.rightmove.co.uk/estate-agents/agent/Able-Estates/South-East-London-8201.html,,,3.0,2023-06-26 15:50:02.781302,House,3.0,2.0,113.0,"Northumberland Park, Northumberland Heath  * VIDEO & 3D FLOORPLAN AVAILABLE *",,
522,450000,3 bedroom house for sale,"Downbank Avenue, Bexleyheath",http://www.rightmove.co.uk/properties/133665017#/?channel=RES_BUY,http://www.rightmove.co.uk/estate-agents/agent/Hunters/Bexleyheath-4311.html,,,3.0,2023-06-26 15:50:02.781302,House,3.0,1.0,72.0,"Downbank Avenue, Bexleyheath",51.4670751,0.1706752
530,450000,4 bedroom semi-detached house for sale,"Iron Mill Place, Crayford, Dartford",http://www.rightmove.co.uk/properties/134569802#/?channel=RES_BUY,http://www.rightmove.co.uk/estate-agents/agent/Hunters/Bexleyheath-4311.html,,,4.0,2023-06-26 15:50:02.781302,Semi-Detached,4.0,1.0,117.0,"Iron Mill Place, Crayford",51.4546453,0.1829272
539,450000,3 bedroom semi-detached house for sale,"Swanley Road, Welling, Kent, DA16",http://www.rightmove.co.uk/properties/133476716#/?channel=RES_BUY,http://www.rightmove.co.uk/estate-agents/agent/The-Property-Cloud/North-Kent-and-South-East-London-109346.html,DA16,,3.0,2023-06-26 15:50:02.781302,Semi-Detached,3.0,1.0,81.0,"Swanley Road, Welling",51.4684513,0.1199322
553,450000,3 bedroom house for sale,"Crowden Way, London",http://www.rightmove.co.uk/properties/133768499#/?channel=RES_BUY,http://www.rightmove.co.uk/estate-agents/agent/Able-Estates/South-East-London-8201.html,,,3.0,2023-06-26 15:50:02.781302,House,3.0,1.0,108.0,"Crowden Way, London",51.5055532,0.1225043
567,450000,3 bedroom house for sale,"Rainbow Road, Slade Green,Erith ** VIDEO & 3D FLOORPLAN AVAILABLE **",http://www.rightmove.co.uk/properties/132652010#/?channel=RES_BUY,http://www.rightmove.co.uk/estate-agents/agent/Able-Estates/South-East-London-8201.html,,,3.0,2023-06-26 15:50:02.781302,House,3.0,2.0,105.0,"Rainbow Road, Slade Green,Erith ** VIDEO & 3D FLOORPLAN AVAILABLE **",,
568,450000,3 bedroom terraced house for sale,"Tyrrell Avenue, Welling, DA16 2BU",http://www.rightmove.co.uk/properties/135968615#/?channel=RES_BUY,http://www.rightmove.co.uk/estate-agents/agent/James-Gorey-Estate-Agents/Sidcup-220718.html,DA16,DA16 2BU,3.0,2023-06-26 15:50:02.781302,Terraced,3.0,2.0,678.0,"Tyrrell Avenue, Welling",51.4521238,0.1075924
575,385000,2 bedroom end of terrace house for sale,"Royal Oak Road, Bexleyheath, Kent, DA6",http://www.rightmove.co.uk/properties/133476659#/?channel=RES_BUY,http://www.rightmove.co.uk/estate-agents/agent/The-Property-Cloud/North-Kent-and-South-East-London-109346.html,DA6,,2.0,2023-06-26 15:50:02.781302,End of Terrace,2.0,2.0,71.0,"Royal Oak Road, Bexleyheath",51.4557288,0.1424704
577,440000,3 bedroom house for sale,"Salmon Road, Belvedere",http://www.rightmove.co.uk/properties/136214945#/?channel=RES_BUY,http://www.rightmove.co.uk/estate-agents/agent/Able-Estates/South-East-London-8201.html,,,3.0,2023-06-26 15:50:02.781302,House,3.0,1.0,97.0,"Salmon Road, Belvedere",51.4825588,0.1513752
582,440000,3 bedroom house for sale,"ABBEY ROAD, BELVEDERE, DA17 5DF ** VIDEO & 3D FLOORPLAN AVAILABLE **",http://www.rightmove.co.uk/properties/134092421#/?channel=RES_BUY,http://www.rightmove.co.uk/estate-agents/agent/Able-Estates/South-East-London-8201.html,DA17,DA17 5DF,3.0,2023-06-26 15:50:02.781302,House,3.0,1.0,102.0,"ABBEY ROAD, BELVEDERE",51.4903255,0.1372444
596,425000,3 bedroom house for sale,"Alcock Crescent, Crayford, Dartford",http://www.rightmove.co.uk/properties/136427264#/?channel=RES_BUY,http://www.rightmove.co.uk/estate-agents/agent/Murray-Lee-Mckenzie/Belvedere-249608.html,,,3.0,2023-06-26 15:50:02.781302,House,3.0,2.0,132.0,"Alcock Crescent, Crayford",51.4509492,0.1900774
600,385000,2 bedroom end of terrace house for sale,"Royal Oak Road, Bexleyheath, Kent, DA6",http://www.rightmove.co.uk/properties/133476659#/?channel=RES_BUY,http://www.rightmove.co.uk/estate-agents/agent/The-Property-Cloud/North-Kent-and-South-East-London-109346.html,DA6,,2.0,2023-06-26 15:50:02.781302,End of Terrace,2.0,2.0,71.0,"Royal Oak Road, Bexleyheath",51.4557288,0.1424704
607,425000,3 bedroom house for sale,"HADLEY ROAD, DA17 5HW   * VIDEO & 3D FLOORPLAN AVAILABLE *",http://www.rightmove.co.uk/properties/134628359#/?channel=RES_BUY,http://www.rightmove.co.uk/estate-agents/agent/Able-Estates/South-East-London-8201.html,DA17,DA17 5HW,3.0,2023-06-26 15:50:02.781302,House,3.0,1.0,77.0,"HADLEY ROAD, DA17 5HW   * VIDEO & 3D FLOORPLAN AVAILABLE *",,
621,425000,2 bedroom semi-detached house for sale,"Wendover Way, South Welling",http://www.rightmove.co.uk/properties/135305573#/?channel=RES_BUY,http://www.rightmove.co.uk/estate-agents/agent/Hunters/Bexleyheath-4311.html,,,2.0,2023-06-26 15:50:02.781302,Semi-Detached,2.0,1.0,71.0,"Wendover Way, South Welling",,
625,675000,4 bedroom semi-detached house for sale,"West Heath Road, Upper SE2   * VIDEO & 3D FLOORPLAN AVAILABLE *",http://www.rightmove.co.uk/properties/128231816#/?channel=RES_BUY,http://www.rightmove.co.uk/estate-agents/agent/Able-Estates/South-East-London-8201.html,SE2,,4.0,2023-06-26 15:50:02.781302,Semi-Detached,4.0,1.0,134.0,"West Heath Road, Upper SE2   * VIDEO & 3D FLOORPLAN AVAILABLE *",,
626,425000,2 bedroom semi-detached house for sale,"Exmouth Road, Welling, Kent, DA16 1EB",http://www.rightmove.co.uk/properties/134806556#/?channel=RES_BUY,http://www.rightmove.co.uk/estate-agents/agent/Hunters/Bexleyheath-4311.html,DA16,DA16 1EB,2.0,2023-06-26 15:50:02.781302,Semi-Detached,2.0,1.0,97.0,"Exmouth Road, Welling",51.4734255,0.1156295
645,400000,2 bedroom apartment for sale,"The Crescent, Sidcup, Kent, DA14",http://www.rightmove.co.uk/properties/134942858#/?channel=RES_BUY,http://www.rightmove.co.uk/estate-agents/agent/Kallars/Sidcup-80169.html,DA14,,2.0,2023-06-26 15:50:02.781302,Apartment,2.0,1.0,58.0,"The Crescent, Sidcup",51.4258935,0.0960184
663,400000,3 bedroom house for sale,"Taunton Close, Bexleyheath",http://www.rightmove.co.uk/properties/136571087#/?channel=RES_BUY,http://www.rightmove.co.uk/estate-agents/agent/Murray-Lee-Mckenzie/Belvedere-249608.html,,,3.0,2023-06-26 15:50:02.781302,House,3.0,1.0,84.0,"Taunton Close, Bexleyheath",51.4629717,0.1705789
687,400000,2 bedroom semi-detached house for sale,"Cheviot Close, Bexleyheath",http://www.rightmove.co.uk/properties/134158556#/?channel=RES_BUY,http://www.rightmove.co.uk/estate-agents/agent/Hunters/Bexleyheath-4311.html,,,2.0,2023-06-26 15:50:02.781302,Semi-Detached,2.0,1.0,89.0,"Cheviot Close, Bexleyheath",51.4669521,0.1741599
695,395000,2 bedroom semi-detached house for sale,"Bradenham Avenue, Welling, Kent, DA16",http://www.rightmove.co.uk/properties/136525202#/?channel=RES_BUY,http://www.rightmove.co.uk/estate-agents/agent/The-Property-Cloud/North-Kent-and-South-East-London-109346.html,DA16,,2.0,2023-06-26 15:50:02.781302,Semi-Detached,2.0,1.0,71.0,"Bradenham Avenue, Welling",51.4583871,0.1037389
705,385000,2 bedroom end of terrace house for sale,"Royal Oak Road, Bexleyheath, Kent, DA6",http://www.rightmove.co.uk/properties/133476659#/?channel=RES_BUY,http://www.rightmove.co.uk/estate-agents/agent/The-Property-Cloud/North-Kent-and-South-East-London-109346.html,DA6,,2.0,2023-06-26 15:50:02.781302,End of Terrace,2.0,2.0,71.0,"Royal Oak Road, Bexleyheath",51.4557288,0.1424704
724,375000,2 bedroom terraced house for sale,"Crayford Way, Crayford, Kent",http://www.rightmove.co.uk/properties/134158355#/?channel=RES_BUY,http://www.rightmove.co.uk/estate-agents/agent/Livermores-The-Estate-Agents/Crayford-14149.html,,,2.0,2023-06-26 15:50:02.781302,Terraced,2.0,1.0,70.0,"Crayford Way, Crayford",51.4516394,0.1787319
725,475000,3 bedroom semi-detached house for sale,"Ivedon Road, Welling, Kent, DA16",http://www.rightmove.co.uk/properties/136273181#/?channel=RES_BUY,http://www.rightmove.co.uk/estate-agents/agent/The-Property-Cloud/North-Kent-and-South-East-London-109346.html,DA16,,3.0,2023-06-26 15:50:02.781302,Semi-Detached,3.0,1.0,71.0,"Ivedon Road, Welling",51.4659789,0.1186153
739,375000,2 bedroom terraced house for sale,"Kirkland Close, Sidcup, DA15 8TP",http://www.rightmove.co.uk/properties/86196789#/?channel=RES_BUY,http://www.rightmove.co.uk/estate-agents/agent/James-Gorey-Estate-Agents/Sidcup-220718.html,DA15,DA15 8TP,2.0,2023-06-26 15:50:02.781302,Terraced,2.0,1.0,66.0,"Kirkland Close, Sidcup",51.4494747,0.0887458
766,375000,2 bedroom apartment for sale,"Regal Walk, Bexleyheath, Kent, DA6",http://www.rightmove.co.uk/properties/132701225#/?channel=RES_BUY,http://www.rightmove.co.uk/estate-agents/agent/Kallars/Sidcup-80169.html,DA6,,2.0,2023-06-26 15:50:02.781302,Apartment,2.0,2.0,77.0,"Regal Walk, Bexleyheath",,
795,350000,2 bedroom house for sale,"Wickham Street, Welling  * VIDEO & 3D FLOORPLAN AVAILABLE *",http://www.rightmove.co.uk/properties/85885806#/?channel=RES_BUY,http://www.rightmove.co.uk/estate-agents/agent/Able-Estates/South-East-London-8201.html,,,2.0,2023-06-26 15:50:02.781302,House,2.0,1.0,57.0,"Wickham Street, Welling  * VIDEO & 3D FLOORPLAN AVAILABLE *",,
806,350000,4 bedroom house for sale,COMPTON PLACE DA8 1RY,http://www.rightmove.co.uk/properties/132953474#/?channel=RES_BUY,http://www.rightmove.co.uk/estate-agents/agent/Able-Estates/South-East-London-8201.html,DA8,DA8 1RY,4.0,2023-06-26 15:50:02.781302,House,4.0,1.0,86.0,COMPTON PLACE DA8 1RY,51.4767791,0.1816521
825,385000,2 bedroom end of terrace house for sale,"Royal Oak Road, Bexleyheath, Kent, DA6",http://www.rightmove.co.uk/properties/133476659#/?channel=RES_BUY,http://www.rightmove.co.uk/estate-agents/agent/The-Property-Cloud/North-Kent-and-South-East-London-109346.html,DA6,,2.0,2023-06-26 15:50:02.781302,End of Terrace,2.0,2.0,71.0,"Royal Oak Road, Bexleyheath",51.4557288,0.1424704
842,315000,2 bedroom maisonette for sale,"Penhill Road, Bexley, DA5 3EN",http://www.rightmove.co.uk/properties/134350292#/?channel=RES_BUY,http://www.rightmove.co.uk/estate-agents/agent/James-Gorey-Estate-Agents/Sidcup-220718.html,DA5,DA5 3EN,2.0,2023-06-26 15:50:02.781302,Maisonette,2.0,1.0,45.0,"Penhill Road, Bexley",51.4476609,0.1187711
875,725000,5 bedroom semi-detached house for sale,"Telford Road, London, SE9",http://www.rightmove.co.uk/properties/136450256#/?channel=RES_BUY,http://www.rightmove.co.uk/estate-agents/agent/Cockburn-Estate-Agents/Mottingham--Sales-17465.html,SE9,,5.0,2023-06-26 15:50:02.781302,Semi-Detached,5.0,3.0,144.0,"Telford Road, London",51.6149114,-0.1281847
879,300000,2 bedroom terraced house for sale,"Woodfall Drive, Crayford, Kent",http://www.rightmove.co.uk/properties/134596397#/?channel=RES_BUY,http://www.rightmove.co.uk/estate-agents/agent/Livermores-The-Estate-Agents/Crayford-14149.html,,,2.0,2023-06-26 15:50:02.781302,Terraced,2.0,1.0,47.0,"Woodfall Drive, Crayford",51.4557247,0.1790963
897,290000,2 bedroom maisonette for sale,"Mera Drive, Bexleyheath, Kent, DA7 4JN",http://www.rightmove.co.uk/properties/135595082#/?channel=RES_BUY,http://www.rightmove.co.uk/estate-agents/agent/Hunters/Bexleyheath-4311.html,DA7,DA7 4JN,2.0,2023-06-26 15:50:02.781302,Maisonette,2.0,1.0,52.0,"Mera Drive, Bexleyheath",51.4583574,0.1500353
909,285000,2 bedroom flat for sale,"Fox Hollow Drive, Bexleyheath",http://www.rightmove.co.uk/properties/130897850#/?channel=RES_BUY,http://www.rightmove.co.uk/estate-agents/agent/Hunters/Bexleyheath-4311.html,,,2.0,2023-06-26 15:50:02.781302,Flat,2.0,1.0,54.0,"Fox Hollow Drive, Bexleyheath",51.4633519,0.1264023
912,285000,2 bedroom apartment for sale,"Broomfield Road, Bexleyheath   * VIDEO & 3D FLOORPLAN AVAILABLE *",http://www.rightmove.co.uk/properties/134583473#/?channel=RES_BUY,http://www.rightmove.co.uk/estate-agents/agent/Able-Estates/South-East-London-8201.html,,,2.0,2023-06-26 15:50:02.781302,Apartment,2.0,1.0,65.0,"Broomfield Road, Bexleyheath   * VIDEO & 3D FLOORPLAN AVAILABLE *",,
915,280000,2 bedroom flat for sale,"Peridot Court, 99 Slade Green Road, Erith, Kent, DA8",http://www.rightmove.co.uk/properties/127617515#/?channel=RES_BUY,http://www.rightmove.co.uk/estate-agents/agent/Robinson-Jackson/Northumberland-Heath-2604.html,DA8,,2.0,2023-06-26 15:50:02.781302,Flat,2.0,2.0,69.0,"Peridot Court, 99 Slade Green Road",,
933,275000,2 bedroom apartment for sale,"Maple Court, The Nursery, Erith DA8",http://www.rightmove.co.uk/properties/131142701#/?channel=RES_BUY,http://www.rightmove.co.uk/estate-agents/agent/Bernard-Skinner/Eltham-23597.html,DA8,,2.0,2023-06-26 15:50:02.781302,Apartment,2.0,1.0,78.0,"Maple Court, The Nursery",,
953,270000,2 bedroom apartment for sale,"Townhall Square, Crayford, Kent",http://www.rightmove.co.uk/properties/135102596#/?channel=RES_BUY,http://www.rightmove.co.uk/estate-agents/agent/Livermores-The-Estate-Agents/Crayford-14149.html,,,2.0,2023-06-26 15:50:02.781302,Apartment,2.0,2.0,71.0,"Townhall Square, Crayford",,
955,270000,2 bedroom apartment for sale,"Erith High Street, Erith * VIDEO & 3D FLOORPLAN AVAILABLE *",http://www.rightmove.co.uk/properties/135433385#/?channel=RES_BUY,http://www.rightmove.co.uk/estate-agents/agent/Able-Estates/South-East-London-8201.html,,,2.0,2023-06-26 15:50:02.781302,Apartment,2.0,2.0,68.0,"Erith High Street, Erith * VIDEO & 3D FLOORPLAN AVAILABLE *",,
960,265000,2 bedroom apartment for sale,"Beech Haven Court, London Road, Crayford, Kent",http://www.rightmove.co.uk/properties/136281686#/?channel=RES_BUY,http://www.rightmove.co.uk/estate-agents/agent/Livermores-The-Estate-Agents/Crayford-14149.html,,,2.0,2023-06-26 15:50:02.781302,Apartment,2.0,1.0,54.0,"Beech Haven Court, London Road",,
965,265000,1 bedroom flat for sale,"Station Road, Sidcup, DA15 7DY",http://www.rightmove.co.uk/properties/134047553#/?channel=RES_BUY,http://www.rightmove.co.uk/estate-agents/agent/James-Gorey-Estate-Agents/Sidcup-220718.html,DA15,DA15 7DY,1.0,2023-06-26 15:50:02.781302,Flat,1.0,1.0,51.0,"Station Road, Sidcup",51.4308994,0.1021733
967,265000,2 bedroom ground floor flat for sale,"Townhall Square, Crayford, Dartford, Kent, DA1",http://www.rightmove.co.uk/properties/134175368#/?channel=RES_BUY,http://www.rightmove.co.uk/estate-agents/agent/The-Property-Cloud/North-Kent-and-South-East-London-109346.html,DA1,,2.0,2023-06-26 15:50:02.781302,Ground Flat,2.0,2.0,67.0,"Townhall Square, Crayford",,
968,265000,1 bedroom terraced house for sale,"Nickelby Close, Thamesmead, London, SE28",http://www.rightmove.co.uk/properties/130361825#/?channel=RES_BUY,http://www.rightmove.co.uk/estate-agents/agent/Foxtons/Woolwich-227810.html,SE28,,1.0,2023-06-26 15:50:02.781302,Terraced,1.0,1.0,41.0,"Nickelby Close, Thamesmead",51.5098444,0.1187506
980,255000,1 bedroom flat for sale,"Sidcup High Street, Sidcup, DA14 6EP",http://www.rightmove.co.uk/properties/134046935#/?channel=RES_BUY,http://www.rightmove.co.uk/estate-agents/agent/James-Gorey-Estate-Agents/Sidcup-220718.html,DA14,DA14 6EP,1.0,2023-06-26 15:50:02.781302,Flat,1.0,1.0,49.0,"Sidcup High Street, Sidcup",51.42543595,0.10417494737120295
981,250000,2 bedroom flat for sale,"Bexley Road, Kent",http://www.rightmove.co.uk/properties/136124873#/?channel=RES_BUY,http://www.rightmove.co.uk/estate-agents/agent/Able-Estates/South-East-London-8201.html,,,2.0,2023-06-26 15:50:02.781302,Flat,2.0,1.0,48.0,"Bexley Road, Kent",51.4737457,0.16284165917721521
987,250000,3 bedroom house for sale,"Mangold Way, Erith",http://www.rightmove.co.uk/properties/136131884#/?channel=RES_BUY,http://www.rightmove.co.uk/estate-agents/agent/Able-Estates/South-East-London-8201.html,,,3.0,2023-06-26 15:50:02.781302,House,3.0,1.0,100.0,"Mangold Way, Erith",,
1010,245000,2 bedroom maisonette for sale,"MARY McARTHUR HOUSE, PICARDY STREET.  DA17 5QA   * VIDEO & 3D FLOORPLAN AVAILABLE *",http://www.rightmove.co.uk/properties/133654466#/?channel=RES_BUY,http://www.rightmove.co.uk/estate-agents/agent/Able-Estates/South-East-London-8201.html,DA17,DA17 5QA,2.0,2023-06-26 15:50:02.781302,Maisonette,2.0,1.0,63.0,"MARY McARTHUR HOUSE, PICARDY STREET.  DA17 5QA   * VIDEO & 3D FLOORPLAN AVAILABLE *",,
1012,240000,4 bedroom terraced house for sale,"Hartslock Drive,SE2 ** VIDEO & 3D FLOORPLANS AVAILABLE **",http://www.rightmove.co.uk/properties/136283210#/?channel=RES_BUY,http://www.rightmove.co.uk/estate-agents/agent/Able-Estates/South-East-London-8201.html,SE2,,4.0,2023-06-26 15:50:02.781302,Terraced,4.0,2.0,114.0,"Hartslock Drive,SE2 ** VIDEO & 3D FLOORPLANS AVAILABLE **",,
1014,240000,3 bedroom house for sale,"Redpoll Way, Erith  * VIDEO & 3D FLOORPLAN AVAILABLE *",http://www.rightmove.co.uk/properties/135514520#/?channel=RES_BUY,http://www.rightmove.co.uk/estate-agents/agent/Able-Estates/South-East-London-8201.html,,,3.0,2023-06-26 15:50:02.781302,House,3.0,1.0,90.0,"Redpoll Way, Erith  * VIDEO & 3D FLOORPLAN AVAILABLE *",,
1016,240000,2 bedroom apartment for sale,"Cutter House, Chichester Wharf, Erith    * VIDEO & 3D FLOORPLAN AVAILABLE *",http://www.rightmove.co.uk/properties/130873442#/?channel=RES_BUY,http://www.rightmove.co.uk/estate-agents/agent/Able-Estates/South-East-London-8201.html,,,2.0,2023-06-26 15:50:02.781302,Apartment,2.0,1.0,62.0,"Cutter House, Chichester Wharf",,
1017,240000,1 bedroom flat for sale,"Hatherley Road, Sidcup, DA14 4AT",http://www.rightmove.co.uk/properties/133637225#/?channel=RES_BUY,http://www.rightmove.co.uk/estate-agents/agent/James-Gorey-Estate-Agents/Sidcup-220718.html,DA14,DA14 4AT,1.0,2023-06-26 15:50:02.781302,Flat,1.0,1.0,44.0,"Hatherley Road, Sidcup",51.4326089,0.1044431
1018,240000,2 bedroom maisonette for sale,"Hawthorn Place, Erith, Kent, DA8",http://www.rightmove.co.uk/properties/127378127#/?channel=RES_BUY,http://www.rightmove.co.uk/estate-agents/agent/Robinson-Jackson/Northumberland-Heath-2604.html,DA8,,2.0,2023-06-26 15:50:02.781302,Maisonette,2.0,1.0,60.0,"Hawthorn Place, Erith",51.4832718,0.1658599
1019,240000,2 bedroom flat for sale,FRANCIS COURT DA8 1DQ,http://www.rightmove.co.uk/properties/134818076#/?channel=RES_BUY,http://www.rightmove.co.uk/estate-agents/agent/Able-Estates/South-East-London-8201.html,DA8,DA8 1DQ,2.0,2023-06-26 15:50:02.781302,Flat,2.0,1.0,65.0,FRANCIS COURT DA8 1DQ,51.7435493,-1.2017373881604607
1028,230000,1 bedroom flat for sale,"Sidcup High Street, Sidcup, DA14 6EP",http://www.rightmove.co.uk/properties/130320062#/?channel=RES_BUY,http://www.rightmove.co.uk/estate-agents/agent/James-Gorey-Estate-Agents/Sidcup-220718.html,DA14,DA14 6EP,1.0,2023-06-26 15:50:02.781302,Flat,1.0,1.0,42.0,"Sidcup High Street, Sidcup",51.42543595,0.10417494737120295
1047,220000,2 bedroom flat for sale,"Chandlers Drive, Kent",http://www.rightmove.co.uk/properties/136182833#/?channel=RES_BUY,http://www.rightmove.co.uk/estate-agents/agent/Able-Estates/South-East-London-8201.html,,,2.0,2023-06-26 15:50:02.781302,Flat,2.0,1.0,52.0,"Chandlers Drive, Kent",,
