Unnamed: 0,price,type,address,url,agent_url,postcode,full_postcode,number_bedrooms,search_date,property_type,bedrooms,bathrooms,size_square_meters,new_address,latitude,longitude
4,32500000.0,8 bedroom house for sale,"Tregunter Road, Chelsea, SW10",http://www.rightmove.co.uk/properties/135343187#/?channel=RES_BUY,http://www.rightmove.co.uk/estate-agents/agent/Beauchamp-Estates-Ltd/Mayfair---Resale-79099.html,SW10,,8.0,2023-06-26 06:17:25.260747,House,8.0,11.0,980.0,"Tregunter Road, Chelsea",51.4861264,-0.187034
9,24950000.0,7 bedroom terraced house for sale,"Herbert Crescent, London, SW1X",http://www.rightmove.co.uk/properties/128022866#/?channel=RES_BUY,http://www.rightmove.co.uk/estate-agents/agent/Jonathan-Arron-Residential/London-69315.html,SW1X,,7.0,2023-06-26 06:17:25.260747,Terraced,7.0,9.0,700.0,"Herbert Crescent, London",51.4989338,-0.1602766
10,24950000.0,3 bedroom flat for sale,"Kensington Palace Gardens, Kensington, W8",http://www.rightmove.co.uk/properties/131033849#/?channel=RES_BUY,http://www.rightmove.co.uk/estate-agents/agent/Beauchamp-Estates-Ltd/Mayfair---Resale-79099.html,W8,,3.0,2023-06-26 06:17:25.260747,Flat,3.0,3.0,473.0,"Kensington Palace Gardens, Kensington",51.509643,-0.1925728
15,22500000.0,7 bedroom house for sale,"Herbert Crescent, London",http://www.rightmove.co.uk/properties/135105395#/?channel=RES_BUY,http://www.rightmove.co.uk/estate-agents/agent/Knightsbridge-International-Real-Estate/London-238904.html,,,7.0,2023-06-26 06:17:25.260747,House,7.0,7.0,544.0,"Herbert Crescent, London",51.4989338,-0.1602766
16,22500000.0,7 bedroom end of terrace house for sale,"Ilchester Place, Holland Park, London, W14",http://www.rightmove.co.uk/properties/134048156#/?channel=RES_BUY,http://www.rightmove.co.uk/estate-agents/agent/Russell-Simpson/Kensington-204992.html,W14,,7.0,2023-06-26 06:17:25.260747,End of Terrace,7.0,4.0,597.0,"Ilchester Place, Holland Park",51.502125899999996,-0.20288040048709216
18,22500000.0,7 bedroom house for sale,"Ilchester Place, Kensington, London W14",http://www.rightmove.co.uk/properties/134007467#/?channel=RES_BUY,http://www.rightmove.co.uk/estate-agents/agent/Aylesford-International/Chelsea-42848.html,W14,,7.0,2023-06-26 06:17:25.260747,House,7.0,5.0,591.0,"Ilchester Place, Kensington",51.4994731,-0.2021745
23,21500000.0,7 bedroom detached house for sale,"Dawson Place, London, W2",http://www.rightmove.co.uk/properties/135790082#/?channel=RES_BUY,http://www.rightmove.co.uk/estate-agents/agent/DS-Churchill/London-200708.html,W2,,7.0,2023-06-26 06:17:25.260747,Detached,7.0,5.0,618.0,"Dawson Place, London",51.5125077,-0.1955582
25,2675000.0,3 bedroom house for sale,"St Catherines Mews, SW3",http://www.rightmove.co.uk/properties/134146799#/?channel=RES_BUY,http://www.rightmove.co.uk/estate-agents/agent/STANLEY-PROPERTY-LONDON/Chelsea-34115.html,SW3,,3.0,2023-06-26 06:17:25.260747,House,3.0,2.0,149.0,"St Catherines Mews, SW3",,
29,19950000.0,6 bedroom terraced house for sale,"Herbert Crescent, Knightsbridge, SW1X",http://www.rightmove.co.uk/properties/130333274#/?channel=RES_BUY,http://www.rightmove.co.uk/estate-agents/agent/Beauchamp-Estates-Ltd/New-Homes-233642.html,SW1X,,6.0,2023-06-26 06:17:25.260747,Terraced,6.0,8.0,431.0,"Herbert Crescent, Knightsbridge",,
30,19950000.0,6 bedroom house for sale,"Herbert Crescent, Knightsbridge, SW1X",http://www.rightmove.co.uk/properties/131017301#/?channel=RES_BUY,http://www.rightmove.co.uk/estate-agents/agent/Beauchamp-Estates-Ltd/Mayfair---Resale-79099.html,SW1X,,6.0,2023-06-26 06:17:25.260747,House,6.0,6.0,412.0,"Herbert Crescent, Knightsbridge",,
31,19500000.0,5 bedroom flat for sale,"Cadogan Square, Knightsbridge, SW1X",http://www.rightmove.co.uk/properties/133708385#/?channel=RES_BUY,http://www.rightmove.co.uk/estate-agents/agent/Hamptons-Sales/Knightsbridge-37931.html,SW1X,,5.0,2023-06-26 06:17:25.260747,Flat,5.0,5.0,409.0,"Cadogan Square, Knightsbridge",,
33,19500000.0,5 bedroom flat for sale,"Cadogan Square, London",http://www.rightmove.co.uk/properties/136316720#/?channel=RES_BUY,http://www.rightmove.co.uk/estate-agents/agent/Strutt-and-Parker/Sloane-Street-44264.html,,,5.0,2023-06-26 06:17:25.260747,Flat,5.0,5.0,409.0,"Cadogan Square, London",51.4958719,-0.160272
39,17950000.0,5 bedroom apartment for sale,"Lennox Gardens, London",http://www.rightmove.co.uk/properties/128567009#/?channel=RES_BUY,http://www.rightmove.co.uk/estate-agents/agent/Munday-Crowley-Property-Consultants/Notting-Hill-227960.html,,,5.0,2023-06-26 06:17:25.260747,Apartment,5.0,5.0,479.0,"Lennox Gardens, London",51.5672584,0.0558255
40,17500000.0,6 bedroom apartment for sale,"Chesham Place, London, SW1X",http://www.rightmove.co.uk/properties/132948674#/?channel=RES_BUY,http://www.rightmove.co.uk/estate-agents/agent/Rokstone/London-176396.html,SW1X,,6.0,2023-06-26 06:17:25.260747,Apartment,6.0,5.0,411.0,"Chesham Place, London",51.497216550000005,-0.15563450646376514
41,17500000.0,5 bedroom apartment for sale,"Chesham Place, Belgravia SW1",http://www.rightmove.co.uk/properties/133084916#/?channel=RES_BUY,http://www.rightmove.co.uk/estate-agents/agent/Knight-Frank/Knightsbridge-65827.html,SW1,,5.0,2023-06-26 06:17:25.260747,Apartment,5.0,5.0,410.0,"Chesham Place, Belgravia SW1",51.4977959,-0.1543698
43,17000000.0,4 bedroom apartment for sale,"Hollandgreen Place, Kensington High Street, Kensington, London, W8",http://www.rightmove.co.uk/properties/135592631#/?channel=RES_BUY,http://www.rightmove.co.uk/estate-agents/agent/Rokstone/London-176396.html,W8,,4.0,2023-06-26 06:17:25.260747,Apartment,4.0,4.0,396.0,"Hollandgreen Place, Kensington High Street",,
44,16950000.0,6 bedroom house for sale,"Stanley Gardens, Notting Hill W11",http://www.rightmove.co.uk/properties/104103539#/?channel=RES_BUY,http://www.rightmove.co.uk/estate-agents/agent/Beauchamp-Estates-Ltd/Mayfair---Resale-79099.html,W11,,6.0,2023-06-26 06:17:25.260747,House,6.0,6.0,441.0,"Stanley Gardens, Notting Hill W11",51.5121446,-0.2042274
45,16500000.0,6 bedroom house for sale,"Astell Street, Chelsea, SW3",http://www.rightmove.co.uk/properties/136112252#/?channel=RES_BUY,http://www.rightmove.co.uk/estate-agents/agent/Knight-Frank---New-Homes/Prime-Central-London-Developments-41063.html,SW3,,6.0,2023-06-26 06:17:25.260747,House,6.0,6.0,500.0,"Astell Street, Chelsea",51.4893624,-0.1672717
50,1000000.0,2 bedroom flat for sale,"Brechin Place, South Kensington, London, SW7",http://www.rightmove.co.uk/properties/135243710#/?channel=RES_BUY,http://www.rightmove.co.uk/estate-agents/agent/Foxtons/South-Kensington-15942.html,SW7,,2.0,2023-06-26 06:17:25.260747,Flat,2.0,1.0,68.0,"Brechin Place, South Kensington",51.4915949,-0.1804544
52,15000000.0,7 bedroom house for sale,"Addison Road, Holland Park, London, W14",http://www.rightmove.co.uk/properties/134400341#/?channel=RES_BUY,http://www.rightmove.co.uk/estate-agents/agent/Russell-Simpson/Kensington-204992.html,W14,,7.0,2023-06-26 06:17:25.260747,House,7.0,5.0,609.0,"Addison Road, Holland Park",51.5042002,-0.2109738
58,14950000.0,6 bedroom house for sale,"Elm Park Road, Chelsea, London, SW3",http://www.rightmove.co.uk/properties/86136960#/?channel=RES_BUY,http://www.rightmove.co.uk/estate-agents/agent/Russell-Simpson/Chelsea-46451.html,SW3,,6.0,2023-06-26 06:17:25.260747,House,6.0,5.0,386.0,"Elm Park Road, Chelsea",51.487054,-0.1750544
63,14000000.0,12 bedroom house for sale,"Queen's Gate Place, London, SW7",http://www.rightmove.co.uk/properties/133769975#/?channel=RES_BUY,http://www.rightmove.co.uk/estate-agents/agent/Thackerays/London-39899.html,SW7,,12.0,2023-06-26 06:17:25.260747,House,12.0,8.0,817.0,"Queen's Gate Place, London",51.49738,-0.1814739
66,13500000.0,7 bedroom flat for sale,"Hans Place, Knightsbridge, SW1X",http://www.rightmove.co.uk/properties/134881544#/?channel=RES_BUY,http://www.rightmove.co.uk/estate-agents/agent/Beauchamp-Estates-Ltd/Mayfair---Resale-79099.html,SW1X,,7.0,2023-06-26 06:17:25.260747,Flat,7.0,6.0,400.0,"Hans Place, Knightsbridge",51.4971121,-0.1689326
67,13500000.0,7 bedroom terraced house for sale,"Hans Place, 
Knightsbridge, SW1X",http://www.rightmove.co.uk/properties/134582801#/?channel=RES_BUY,http://www.rightmove.co.uk/estate-agents/agent/Chestertons-Estate-Agents/Knightsbridge-31608.html,SW1X,,7.0,2023-06-26 06:17:25.260747,Terraced,7.0,6.0,397.0,"Hans Place, 
Knightsbridge",51.4971121,-0.1689326
68,13500000.0,7 bedroom town house for sale,"Hans Place, Knightsbridge",http://www.rightmove.co.uk/properties/135009938#/?channel=RES_BUY,http://www.rightmove.co.uk/estate-agents/agent/Rokstone/London-176396.html,,,7.0,2023-06-26 06:17:25.260747,Town House,7.0,6.0,388.0,"Hans Place, Knightsbridge",51.4971121,-0.1689326
75,1000000.0,2 bedroom flat for sale,"Brechin Place, South Kensington, London, SW7",http://www.rightmove.co.uk/properties/135243710#/?channel=RES_BUY,http://www.rightmove.co.uk/estate-agents/agent/Foxtons/South-Kensington-15942.html,SW7,,2.0,2023-06-26 06:17:25.260747,Flat,2.0,1.0,68.0,"Brechin Place, South Kensington",51.4915949,-0.1804544
89,11000000.0,8 bedroom block of apartments for sale,"Old Church Street, London, SW3",http://www.rightmove.co.uk/properties/131009342#/?channel=RES_BUY,http://www.rightmove.co.uk/estate-agents/agent/Chapeltons/London-256376.html,SW3,,8.0,2023-06-26 06:17:25.260747,Block of Apartments,8.0,8.0,486.0,"Old Church Street, London",51.4850447,-0.1726306
91,10995000.0,6 bedroom town house for sale,"Abingdon Road, Kensington, W8",http://www.rightmove.co.uk/properties/124576808#/?channel=RES_BUY,http://www.rightmove.co.uk/estate-agents/agent/Moveli/London-191324.html,W8,,6.0,2023-06-26 06:17:25.260747,Town House,6.0,4.0,571.0,"Abingdon Road, Kensington",51.4963508,-0.1953396
97,10350000.0,6 bedroom semi-detached house for sale,"Chelsea Square, London, SW3",http://www.rightmove.co.uk/properties/132513161#/?channel=RES_BUY,http://www.rightmove.co.uk/estate-agents/agent/Off-Market-London-Property/London-257672.html,SW3,,6.0,2023-06-26 06:17:25.260747,Semi-Detached,6.0,4.0,445.0,"Chelsea Square, London",51.4887863,-0.1726169
98,10250000.0,6 bedroom terraced house for sale,"Oakley Street, Chelsea, London, SW3",http://www.rightmove.co.uk/properties/113802509#/?channel=RES_BUY,http://www.rightmove.co.uk/estate-agents/agent/Tedworth-Property-Limited/London-182369.html,SW3,,6.0,2023-06-26 06:17:25.260747,Terraced,6.0,3.0,404.0,"Oakley Street, Chelsea",51.4834923,-0.1673313
115,9500000.0,5 bedroom house for sale,"Cheyne Walk, Chelsea, London, SW3",http://www.rightmove.co.uk/properties/135028109#/?channel=RES_BUY,http://www.rightmove.co.uk/estate-agents/agent/Russell-Simpson/Chelsea-46451.html,SW3,,5.0,2023-06-26 06:17:25.260747,House,5.0,5.0,452.0,"Cheyne Walk, Chelsea",51.4832989,-0.1692899
123,9250000.0,5 bedroom house for sale,"Alexander Square, Knightsbridge, London, SW3",http://www.rightmove.co.uk/properties/134188577#/?channel=RES_BUY,http://www.rightmove.co.uk/estate-agents/agent/Russell-Simpson/Chelsea-46451.html,SW3,,5.0,2023-06-26 06:17:25.260747,House,5.0,4.0,347.0,"Alexander Square, Knightsbridge",,
124,9250000.0,8 bedroom semi-detached house for sale,"Thurloe Square, London",http://www.rightmove.co.uk/properties/132965129#/?channel=RES_BUY,http://www.rightmove.co.uk/estate-agents/agent/UK-Property-Advisors-Powered-by-Keller-Williams/Covering-London-246173.html,,,8.0,2023-06-26 06:17:25.260747,Semi-Detached,8.0,7.0,434.0,"Thurloe Square, London",51.4949003,-0.1711455
128,9250000.0,7 bedroom semi-detached house for sale,"Thurloe Square, South Kensington, SW7",http://www.rightmove.co.uk/properties/132886310#/?channel=RES_BUY,http://www.rightmove.co.uk/estate-agents/agent/Maskells-Estate-Agents-Ltd/London-96406.html,SW7,,7.0,2023-06-26 06:17:25.260747,Semi-Detached,7.0,8.0,439.0,"Thurloe Square, South Kensington",51.4941231,-0.1720171
129,9250000.0,4 bedroom terraced house for sale,"Westbourne Grove Mews, London, W11",http://www.rightmove.co.uk/properties/134488676#/?channel=RES_BUY,http://www.rightmove.co.uk/estate-agents/agent/Fine-and-Country/London-242960.html,W11,,4.0,2023-06-26 06:17:25.260747,Terraced,4.0,4.0,453.0,"Westbourne Grove Mews, London",51.5144383,-0.1976019
130,9250000.0,7 bedroom house for sale,"Thurloe Square, 
South Kensington, SW7",http://www.rightmove.co.uk/properties/132822680#/?channel=RES_BUY,http://www.rightmove.co.uk/estate-agents/agent/Chestertons-Estate-Agents/South-Kensington-51955.html,SW7,,7.0,2023-06-26 06:17:25.260747,House,7.0,5.0,434.0,"Thurloe Square, 
South Kensington",51.4941231,-0.1720171
133,9000000.0,6 bedroom terraced house for sale,"Earls Terrace, London, W8",http://www.rightmove.co.uk/properties/128166905#/?channel=RES_BUY,http://www.rightmove.co.uk/estate-agents/agent/Fine-and-Country/London-242960.html,W8,,6.0,2023-06-26 06:17:25.260747,Terraced,6.0,5.0,446.0,"Earls Terrace, London",,
140,8950000.0,6 bedroom terraced house for sale,"Old Church Street, London, SW3",http://www.rightmove.co.uk/properties/135728090#/?channel=RES_BUY,http://www.rightmove.co.uk/estate-agents/agent/Rose-and-Partners/London-182015.html,SW3,,6.0,2023-06-26 06:17:25.260747,Terraced,6.0,4.0,305.0,"Old Church Street, London",51.4850447,-0.1726306
145,8950000.0,3 bedroom flat for sale,"Sloane Street, London",http://www.rightmove.co.uk/properties/129842849#/?channel=RES_BUY,http://www.rightmove.co.uk/estate-agents/agent/Aylesford-International/Chelsea-42848.html,,,3.0,2023-06-26 06:17:25.260747,Flat,3.0,5.0,339.0,"Sloane Street, London",51.4966581,-0.1588417
146,8950000.0,3 bedroom flat for sale,"Sloane Street, 
Knightsbridge, SW1X",http://www.rightmove.co.uk/properties/128617883#/?channel=RES_BUY,http://www.rightmove.co.uk/estate-agents/agent/Chestertons-Estate-Agents/Knightsbridge-31608.html,SW1X,,3.0,2023-06-26 06:17:25.260747,Flat,3.0,3.0,332.0,"Sloane Street, 
Knightsbridge",51.501601,-0.1604201
147,8750000.0,4 bedroom maisonette for sale,"Queen's Gate Terrace, London, SW7",http://www.rightmove.co.uk/properties/136291262#/?channel=RES_BUY,http://www.rightmove.co.uk/estate-agents/agent/DDREglobal/London-79209.html,SW7,,4.0,2023-06-26 06:17:25.260747,Maisonette,4.0,4.0,414.0,"Queen's Gate Terrace, London",51.4987642,-0.1809681
149,8750000.0,3 bedroom terraced house for sale,"Edwardes Square, Kensington, London, W8",http://www.rightmove.co.uk/properties/134173838#/?channel=RES_BUY,http://www.rightmove.co.uk/estate-agents/agent/Russell-Simpson/Kensington-204992.html,W8,,3.0,2023-06-26 06:17:25.260747,Terraced,3.0,4.0,343.0,"Edwardes Square, Kensington",51.4972624,-0.1993744
150,2250000.0,2 bedroom apartment for sale,"Sandalwood Mansions, Kensington Green, W8",http://www.rightmove.co.uk/properties/134391506#/?channel=RES_BUY,http://www.rightmove.co.uk/estate-agents/agent/Jo-Webster-Properties-Ltd/London-139826.html,W8,,2.0,2023-06-26 06:17:25.260747,Apartment,2.0,2.0,94.0,"Sandalwood Mansions, Kensington Green",51.4974293,-0.19204568865878996
157,8250000.0,4 bedroom terraced house for sale,"Pond Place, Chelsea, London, SW3",http://www.rightmove.co.uk/properties/129762614#/?channel=RES_BUY,http://www.rightmove.co.uk/estate-agents/agent/Godson-des-Forges/London-246215.html,SW3,,4.0,2023-06-26 06:17:25.260747,Terraced,4.0,4.0,404.0,"Pond Place, Chelsea",51.4906713,-0.1700524
160,8250000.0,4 bedroom terraced house for sale,"Pond Place, 
Chelsea, SW3",http://www.rightmove.co.uk/properties/135575708#/?channel=RES_BUY,http://www.rightmove.co.uk/estate-agents/agent/Chestertons-Estate-Agents/Chelsea-31554.html,SW3,,4.0,2023-06-26 06:17:25.260747,Terraced,4.0,4.0,405.0,"Pond Place, 
Chelsea",51.4906713,-0.1700524
166,7950000.0,3 bedroom terraced house for sale,"Cheyne Row, Chelsea, London, SW3",http://www.rightmove.co.uk/properties/134806133#/?channel=RES_BUY,http://www.rightmove.co.uk/estate-agents/agent/Russell-Simpson/Chelsea-46451.html,SW3,,3.0,2023-06-26 06:17:25.260747,Terraced,3.0,2.0,353.0,"Cheyne Row, Chelsea",51.4837362,-0.1696296
171,7950000.0,5 bedroom terraced house for sale,"South Terrace, South Kensington, London, SW7",http://www.rightmove.co.uk/properties/135936467#/?channel=RES_BUY,http://www.rightmove.co.uk/estate-agents/agent/Russell-Simpson/Chelsea-46451.html,SW7,,5.0,2023-06-26 06:17:25.260747,Terraced,5.0,3.0,294.0,"South Terrace, South Kensington",51.4947242,-0.1691657
172,7950000.0,4 bedroom terraced house for sale,"Carlyle Square, Chelsea, London, SW3",http://www.rightmove.co.uk/properties/135699788#/?channel=RES_BUY,http://www.rightmove.co.uk/estate-agents/agent/Russell-Simpson/Chelsea-46451.html,SW3,,4.0,2023-06-26 06:17:25.260747,Terraced,4.0,3.0,287.0,"Carlyle Square, Chelsea",51.4873235,-0.1732369
173,7950000.0,3 bedroom penthouse for sale,"Harrington Road, London",http://www.rightmove.co.uk/properties/124813487#/?channel=RES_BUY,http://www.rightmove.co.uk/estate-agents/agent/Knightsbridge-International-Real-Estate/London-238904.html,,,3.0,2023-06-26 06:17:25.260747,Penthouse,3.0,3.0,433.0,"Harrington Road, London",51.3996825,-0.0604262
178,7850000.0,4 bedroom house for sale,"Thurloe Street, South Kensington, SW7",http://www.rightmove.co.uk/properties/124513175#/?channel=RES_BUY,http://www.rightmove.co.uk/estate-agents/agent/Beauchamp-Estates-Ltd/Mayfair---Resale-79099.html,SW7,,4.0,2023-06-26 06:17:25.260747,House,4.0,4.0,297.0,"Thurloe Street, South Kensington",51.494472,-0.1735038
179,7750000.0,5 bedroom semi-detached house for sale,"Kensington Gate, Kensington, London, W8",http://www.rightmove.co.uk/properties/131574098#/?channel=RES_BUY,http://www.rightmove.co.uk/estate-agents/agent/Russell-Simpson/Kensington-204992.html,W8,,5.0,2023-06-26 06:17:25.260747,Semi-Detached,5.0,5.0,320.0,"Kensington Gate, Kensington",51.4995951,-0.1820637
189,7500000.0,6 bedroom terraced house for sale,"Cheniston Gardens, Kensington, London, W8",http://www.rightmove.co.uk/properties/136270997#/?channel=RES_BUY,http://www.rightmove.co.uk/estate-agents/agent/Barnes-International-Realty/London-176336.html,W8,,6.0,2023-06-26 06:17:25.260747,Terraced,6.0,5.0,470.0,"Cheniston Gardens, Kensington",51.499291,-0.1933099
198,7250000.0,3 bedroom penthouse for sale,"Harrington Road, South Kensington, SW7",http://www.rightmove.co.uk/properties/136394144#/?channel=RES_BUY,http://www.rightmove.co.uk/estate-agents/agent/Rokstone/London-176396.html,SW7,,3.0,2023-06-26 06:17:25.260747,Penthouse,3.0,3.0,285.0,"Harrington Road, South Kensington",51.4941567,-0.1753585
200,800000.0,2 bedroom flat for sale,"Holland Road, W14, W14",http://www.rightmove.co.uk/properties/136062107#/?channel=RES_BUY,http://www.rightmove.co.uk/estate-agents/agent/Chancellors/Notting-Hill-41328.html,W14,,2.0,2023-06-26 06:17:25.260747,Flat,2.0,2.0,87.0,"Holland Road, W14",51.5000069,-0.2103336
206,6995000.0,3 bedroom apartment for sale,"Lowndes Square, London, SW1X",http://www.rightmove.co.uk/properties/134371613#/?channel=RES_BUY,http://www.rightmove.co.uk/estate-agents/agent/Aldersley-London-Ltd/London-250187.html,SW1X,,3.0,2023-06-26 06:17:25.260747,Apartment,3.0,3.0,194.0,"Lowndes Square, London",51.501349,-0.1586024
207,6950000.0,4 bedroom apartment for sale,"1 Palace Gate, London",http://www.rightmove.co.uk/properties/129771491#/?channel=RES_BUY,http://www.rightmove.co.uk/estate-agents/agent/Keller-Williams-Prime-Properties/London-146753.html,,,4.0,2023-06-26 06:17:25.260747,Apartment,4.0,3.0,268.0,"1 Palace Gate, London",51.5015643,-0.18428628229203536
209,6950000.0,3 bedroom semi-detached house for sale,"Avondale Park, London W11",http://www.rightmove.co.uk/properties/133391615#/?channel=RES_BUY,http://www.rightmove.co.uk/estate-agents/agent/The-Modern-House/London-65243.html,W11,,3.0,2023-06-26 06:17:25.260747,Semi-Detached,3.0,3.0,308.0,"Avondale Park, London W11",51.5115397,-0.2140361
214,6950000.0,4 bedroom flat for sale,"Palace Gate, Kensington, W8",http://www.rightmove.co.uk/properties/132924305#/?channel=RES_BUY,http://www.rightmove.co.uk/estate-agents/agent/Beauchamp-Estates-Ltd/Mayfair---Resale-79099.html,W8,,4.0,2023-06-26 06:17:25.260747,Flat,4.0,4.0,268.0,"Palace Gate, Kensington",51.5018785,-0.1842831
218,6750000.0,6 bedroom flat for sale,"Kensington Court, London, W8",http://www.rightmove.co.uk/properties/100920143#/?channel=RES_BUY,http://www.rightmove.co.uk/estate-agents/agent/Thackerays/London-39899.html,W8,,6.0,2023-06-26 06:17:25.260747,Flat,6.0,5.0,298.0,"Kensington Court, London",51.5012511,-0.1878279
222,6750000.0,4 bedroom semi-detached house for sale,"Scarsdale Villas, London, W8",http://www.rightmove.co.uk/properties/78316476#/?channel=RES_BUY,http://www.rightmove.co.uk/estate-agents/agent/Limetrees/London-173630.html,W8,,4.0,2023-06-26 06:17:25.260747,Semi-Detached,4.0,4.0,337.0,"Scarsdale Villas, London",51.4973779,-0.1944768
224,6500000.0,4 bedroom house for sale,"Addison Avenue, Holland Park",http://www.rightmove.co.uk/properties/131813960#/?channel=RES_BUY,http://www.rightmove.co.uk/estate-agents/agent/John-Wilcox-and-Co/Holland-Park-31413.html,,,4.0,2023-06-26 06:17:25.260747,House,4.0,2.0,338.0,"Addison Avenue, Holland Park",51.5060928,-0.2118776
225,5500000.0,3 bedroom penthouse for sale,"Tamarind Court, Kensington Green, W8",http://www.rightmove.co.uk/properties/133363604#/?channel=RES_BUY,http://www.rightmove.co.uk/estate-agents/agent/Jo-Webster-Properties-Ltd/London-139826.html,W8,,3.0,2023-06-26 06:17:25.260747,Penthouse,3.0,4.0,178.0,"Tamarind Court, Kensington Green",51.49784914999999,-0.19130910529906986
226,6500000.0,4 bedroom terraced house for sale,"Pembroke Road, Kensington, London, W8",http://www.rightmove.co.uk/properties/133843436#/?channel=RES_BUY,http://www.rightmove.co.uk/estate-agents/agent/Russell-Simpson/Kensington-204992.html,W8,,4.0,2023-06-26 06:17:25.260747,Terraced,4.0,4.0,403.0,"Pembroke Road, Kensington",51.4957151,-0.1965009
228,6500000.0,5 bedroom terraced house for sale,"Scarsdale Villas, London, W8",http://www.rightmove.co.uk/properties/135985745#/?channel=RES_BUY,http://www.rightmove.co.uk/estate-agents/agent/Harding-Green/London-181964.html,W8,,5.0,2023-06-26 06:17:25.260747,Terraced,5.0,3.0,248.0,"Scarsdale Villas, London",51.4973779,-0.1944768
230,6500000.0,2 bedroom apartment for sale,"Holland Park, London, W11",http://www.rightmove.co.uk/properties/132253457#/?channel=RES_BUY,http://www.rightmove.co.uk/estate-agents/agent/DDREglobal/London-79209.html,W11,,2.0,2023-06-26 06:17:25.260747,Apartment,2.0,2.0,233.0,"Holland Park, London",51.5030158,-0.20411700053696852
231,6500000.0,3 bedroom apartment for sale,"Cheval House, Montpelier Walk, Knightsbridge,, SW7",http://www.rightmove.co.uk/properties/136507817#/?channel=RES_BUY,http://www.rightmove.co.uk/estate-agents/agent/EGRE/London-82293.html,SW7,,3.0,2023-06-26 06:17:25.260747,Apartment,3.0,4.0,247.0,"Cheval House, Montpelier Walk",51.498869150000004,-0.1669133124187035
232,6500000.0,3 bedroom penthouse for sale,"Sherrin House, London, W14",http://www.rightmove.co.uk/properties/129278144#/?channel=RES_BUY,http://www.rightmove.co.uk/estate-agents/agent/Grange-London/London-235148.html,W14,,3.0,2023-06-26 06:17:25.260747,Penthouse,3.0,3.0,227.0,"Sherrin House, London",,
236,6400000.0,3 bedroom flat for sale,"Lowndes Square, Knightsbridge, SW1X",http://www.rightmove.co.uk/properties/135854213#/?channel=RES_BUY,http://www.rightmove.co.uk/estate-agents/agent/Beauchamp-Estates-Ltd/Mayfair---Resale-79099.html,SW1X,,3.0,2023-06-26 06:17:25.260747,Flat,3.0,3.0,194.0,"Lowndes Square, Knightsbridge",51.5013853,-0.1584915
239,6400000.0,3 bedroom flat for sale,"45 Lowndes Square, Knightsbridge SW1X",http://www.rightmove.co.uk/properties/86196495#/?channel=RES_BUY,http://www.rightmove.co.uk/estate-agents/agent/Napier-Watt-Limited/London-83443.html,SW1X,,3.0,2023-06-26 06:17:25.260747,Flat,3.0,3.0,199.0,"45 Lowndes Square, Knightsbridge SW1X",,
241,6395000.0,4 bedroom apartment for sale,"Cranley Mansion, 160 Gloucester Road, South Kensington, London, SW7",http://www.rightmove.co.uk/properties/135697718#/?channel=RES_BUY,http://www.rightmove.co.uk/estate-agents/agent/Russell-Simpson/Chelsea-46451.html,SW7,,4.0,2023-06-26 06:17:25.260747,Apartment,4.0,3.0,230.0,"Cranley Mansion, 160 Gloucester Road",,
248,6250000.0,5 bedroom end of terrace house for sale,"Oakley Street, Chelsea, London, SW3",http://www.rightmove.co.uk/properties/128874488#/?channel=RES_BUY,http://www.rightmove.co.uk/estate-agents/agent/Russell-Simpson/Chelsea-46451.html,SW3,,5.0,2023-06-26 06:17:25.260747,End of Terrace,5.0,5.0,344.0,"Oakley Street, Chelsea",51.4834923,-0.1673313
260,6250000.0,5 bedroom terraced house for sale,"Sloane Court East, Chelsea, SW3",http://www.rightmove.co.uk/properties/132355241#/?channel=RES_BUY,http://www.rightmove.co.uk/estate-agents/agent/Russell-Simpson/Chelsea-46451.html,SW3,,5.0,2023-06-26 06:17:25.260747,Terraced,5.0,4.0,251.0,"Sloane Court East, Chelsea",51.4900533,-0.1572286
262,6250000.0,4 bedroom apartment for sale,"Chelsea Embankment, Chelsea, London, SW3",http://www.rightmove.co.uk/properties/135720083#/?channel=RES_BUY,http://www.rightmove.co.uk/estate-agents/agent/Russell-Simpson/Chelsea-46451.html,SW3,,4.0,2023-06-26 06:17:25.260747,Apartment,4.0,4.0,329.0,"Chelsea Embankment, Chelsea",51.4850661,-0.1541747
264,6150000.0,3 bedroom house for sale,"Seymour Walk, London, SW10",http://www.rightmove.co.uk/properties/126040538#/?channel=RES_BUY,http://www.rightmove.co.uk/estate-agents/agent/Vantage-Properties-and-Management-Ltd/Limeharbour-2521.html,SW10,,3.0,2023-06-26 06:17:25.260747,House,3.0,3.0,262.0,"Seymour Walk, London",51.4858769,-0.1823375
265,6150000.0,3 bedroom mews house for sale,"Princes Gate Mews, London, SW7",http://www.rightmove.co.uk/properties/136115024#/?channel=RES_BUY,http://www.rightmove.co.uk/estate-agents/agent/Aldersley-London-Ltd/London-250187.html,SW7,,3.0,2023-06-26 06:17:25.260747,Mews,3.0,4.0,273.0,"Princes Gate Mews, London",51.4982021,-0.172437
266,6000000.0,4 bedroom flat for sale,"Lowndes Court, 
Lowndes Square, SW1X",http://www.rightmove.co.uk/properties/86108274#/?channel=RES_BUY,http://www.rightmove.co.uk/estate-agents/agent/Chestertons-Estate-Agents/Knightsbridge-31608.html,SW1X,,4.0,2023-06-26 06:17:25.260747,Flat,4.0,4.0,245.0,"Lowndes Court, 
Lowndes Square",51.49922995,-0.15822643512861229
273,5950000.0,4 bedroom flat for sale,"Eaton Place, 
Belgravia, SW1X",http://www.rightmove.co.uk/properties/131502341#/?channel=RES_BUY,http://www.rightmove.co.uk/estate-agents/agent/Chestertons-Estate-Agents/Knightsbridge-31608.html,SW1X,,4.0,2023-06-26 06:17:25.260747,Flat,4.0,4.0,227.0,"Eaton Place, 
Belgravia",51.4958894,-0.1546544
277,5950000.0,4 bedroom house for sale,"Scarsdale Studios, 21a Stratford Road, Kensington, London, W8",http://www.rightmove.co.uk/properties/134174111#/?channel=RES_BUY,http://www.rightmove.co.uk/estate-agents/agent/Russell-Simpson/Kensington-204992.html,W8,,4.0,2023-06-26 06:17:25.260747,House,4.0,3.0,347.0,"Scarsdale Studios, 21a Stratford Road",,
283,5850000.0,4 bedroom terraced house for sale,"Ansdell Terrace, 
Kensington, W8",http://www.rightmove.co.uk/properties/135334163#/?channel=RES_BUY,http://www.rightmove.co.uk/estate-agents/agent/Chestertons-Estate-Agents/Kensington-High-Street-31605.html,W8,,4.0,2023-06-26 06:17:25.260747,Terraced,4.0,3.0,282.0,"Ansdell Terrace, 
Kensington",51.5000051,-0.1891537
285,5850000.0,3 bedroom house for sale,"St James`s Gardens, Holland Park",http://www.rightmove.co.uk/properties/132733877#/?channel=RES_BUY,http://www.rightmove.co.uk/estate-agents/agent/John-Wilcox-and-Co/Holland-Park-31413.html,,,3.0,2023-06-26 06:17:25.260747,House,3.0,3.0,241.0,"St James`s Gardens, Holland Park",,
288,5750000.0,4 bedroom terraced house for sale,"Shawfield Street, Chelsea, London, SW3",http://www.rightmove.co.uk/properties/127669244#/?channel=RES_BUY,http://www.rightmove.co.uk/estate-agents/agent/Russell-Simpson/Chelsea-46451.html,SW3,,4.0,2023-06-26 06:17:25.260747,Terraced,4.0,3.0,271.0,"Shawfield Street, Chelsea",51.4867744,-0.1648617
295,5700000.0,2 bedroom maisonette for sale,"One Kensington Gardens, W8",http://www.rightmove.co.uk/properties/132597032#/?channel=RES_BUY,http://www.rightmove.co.uk/estate-agents/agent/Croft-International/London-200411.html,W8,,2.0,2023-06-26 06:17:25.260747,Maisonette,2.0,2.0,180.0,"One Kensington Gardens, W8",,
300,850000.0,1 bedroom apartment for sale,"Brunswick Gardens, Kensington, London, W8",http://www.rightmove.co.uk/properties/135352073#/?channel=RES_BUY,http://www.rightmove.co.uk/estate-agents/agent/Russell-Simpson/Kensington-204992.html,W8,,1.0,2023-06-26 06:17:25.260747,Apartment,1.0,1.0,53.0,"Brunswick Gardens, Kensington",51.5066653,-0.1936959
303,5500000.0,4 bedroom apartment for sale,"Lowndes Lodge, 13-16 Cadogan Place, London, SW1X",http://www.rightmove.co.uk/properties/133706519#/?channel=RES_BUY,http://www.rightmove.co.uk/estate-agents/agent/Russell-Simpson/Chelsea-46451.html,SW1X,,4.0,2023-06-26 06:17:25.260747,Apartment,4.0,3.0,193.0,"Lowndes Lodge, 13-16 Cadogan Place",51.49828205,-0.15771867416360014
305,5500000.0,5 bedroom terraced house for sale,"Cornwall Gardens, 
South Kensington, SW7",http://www.rightmove.co.uk/properties/136014029#/?channel=RES_BUY,http://www.rightmove.co.uk/estate-agents/agent/Chestertons-Estate-Agents/South-Kensington-51955.html,SW7,,5.0,2023-06-26 06:17:25.260747,Terraced,5.0,4.0,304.0,"Cornwall Gardens, 
South Kensington",51.4968954,-0.1850318
309,5500000.0,3 bedroom apartment for sale,"Queen's Gate Gardens, London, SW7",http://www.rightmove.co.uk/properties/127085048#/?channel=RES_BUY,http://www.rightmove.co.uk/estate-agents/agent/Simon-Deen-Real-Estate/London-252320.html,SW7,,3.0,2023-06-26 06:17:25.260747,Apartment,3.0,3.0,292.0,"Queen's Gate Gardens, London",51.4959351,-0.1825534
311,5500000.0,3 bedroom penthouse for sale,"Tamarind Court, Kensington Green, W8",http://www.rightmove.co.uk/properties/133363604#/?channel=RES_BUY,http://www.rightmove.co.uk/estate-agents/agent/Jo-Webster-Properties-Ltd/London-139826.html,W8,,3.0,2023-06-26 06:17:25.260747,Penthouse,3.0,4.0,178.0,"Tamarind Court, Kensington Green",51.49784914999999,-0.19130910529906986
312,5500000.0,5 bedroom flat for sale,"Wetherby Gardens, London, SW5",http://www.rightmove.co.uk/properties/132090395#/?channel=RES_BUY,http://www.rightmove.co.uk/estate-agents/agent/Mountgrange-Heritage/Kensington-32328.html,SW5,,5.0,2023-06-26 06:17:25.260747,Flat,5.0,4.0,286.0,"Wetherby Gardens, London",51.491861,-0.1850166
316,5380000.0,2 bedroom apartment for sale,"South Kensington, London, SW7",http://www.rightmove.co.uk/properties/135855008#/?channel=RES_BUY,http://www.rightmove.co.uk/estate-agents/agent/DDREglobal/London-79209.html,SW7,,2.0,2023-06-26 06:17:25.260747,Apartment,2.0,2.0,159.0,"South Kensington, London",51.4940494,-0.1730439
317,5350000.0,4 bedroom apartment for sale,"Queens Gate Gardens, South Kensington, London, SW7",http://www.rightmove.co.uk/properties/136137254#/?channel=RES_BUY,http://www.rightmove.co.uk/estate-agents/agent/Russell-Simpson/Chelsea-46451.html,SW7,,4.0,2023-06-26 06:17:25.260747,Apartment,4.0,4.0,293.0,"Queens Gate Gardens, South Kensington",51.495416750000004,-0.18049088465166724
318,5350000.0,4 bedroom terraced house for sale,"Donne Place, 
Chelsea, SW3",http://www.rightmove.co.uk/properties/135183194#/?channel=RES_BUY,http://www.rightmove.co.uk/estate-agents/agent/Chestertons-Estate-Agents/Chelsea-31554.html,SW3,,4.0,2023-06-26 06:17:25.260747,Terraced,4.0,4.0,260.0,"Donne Place, 
Chelsea",51.4937692,-0.1673725
319,5250000.0,5 bedroom terraced house for sale,"Paultons Square, SW3",http://www.rightmove.co.uk/properties/135532505#/?channel=RES_BUY,http://www.rightmove.co.uk/estate-agents/agent/Douglas-and-Gordon/Chelsea-34277.html,SW3,,5.0,2023-06-26 06:17:25.260747,Terraced,5.0,3.0,231.0,"Paultons Square, SW3",51.483865,-0.1734098
320,5250000.0,5 bedroom house for sale,"Warwick Gardens, 
Kensington, W14",http://www.rightmove.co.uk/properties/134632265#/?channel=RES_BUY,http://www.rightmove.co.uk/estate-agents/agent/Chestertons-Estate-Agents/Kensington-High-Street-31605.html,W14,,5.0,2023-06-26 06:17:25.260747,House,5.0,3.0,336.0,"Warwick Gardens, 
Kensington",51.4971683,-0.204545
327,5250000.0,5 bedroom terraced house for sale,"Paultons Square, London, SW3",http://www.rightmove.co.uk/properties/134014424#/?channel=RES_BUY,http://www.rightmove.co.uk/estate-agents/agent/Off-Market-London-Property/London-257672.html,SW3,,5.0,2023-06-26 06:17:25.260747,Terraced,5.0,3.0,233.0,"Paultons Square, London",51.483865,-0.1734098
329,5250000.0,4 bedroom terraced house for sale,"Halsey Street, Chelsea SW3",http://www.rightmove.co.uk/properties/133609541#/?channel=RES_BUY,http://www.rightmove.co.uk/estate-agents/agent/Nicolas-Van-Patrick/Knightsbridge-189221.html,SW3,,4.0,2023-06-26 06:17:25.260747,Terraced,4.0,3.0,223.0,"Halsey Street, Chelsea SW3",51.4937359,-0.1629506
330,5250000.0,4 bedroom terraced house for sale,"Milner Street,Chelsea SW3",http://www.rightmove.co.uk/properties/136161428#/?channel=RES_BUY,http://www.rightmove.co.uk/estate-agents/agent/Ashdown-Marks/London-74358.html,SW3,,4.0,2023-06-26 06:17:25.260747,Terraced,4.0,4.0,235.0,"Milner Street,Chelsea SW3",51.494345,-0.1639048
336,5200000.0,3 bedroom apartment for sale,"Palace Gate, London",http://www.rightmove.co.uk/properties/131814359#/?channel=RES_BUY,http://www.rightmove.co.uk/estate-agents/agent/house-Partnership/Covering-London-and-The-Country-161522.html,,,3.0,2023-06-26 06:17:25.260747,Apartment,3.0,3.0,207.0,"Palace Gate, London",51.5018785,-0.1842831
337,5150000.0,3 bedroom penthouse for sale,"Redwood Mansions, Kensington Green, W8",http://www.rightmove.co.uk/properties/127602320#/?channel=RES_BUY,http://www.rightmove.co.uk/estate-agents/agent/Jo-Webster-Properties-Ltd/London-139826.html,W8,,3.0,2023-06-26 06:17:25.260747,Penthouse,3.0,4.0,193.0,"Redwood Mansions, Kensington Green",,
345,5000000.0,2 bedroom apartment for sale,"Ladbroke Grove, 
Holland Park, W11",http://www.rightmove.co.uk/properties/136002131#/?channel=RES_BUY,http://www.rightmove.co.uk/estate-agents/agent/Chestertons-Estate-Agents/Notting-Hill-97522.html,W11,,2.0,2023-06-26 06:17:25.260747,Apartment,2.0,3.0,320.0,"Ladbroke Grove, 
Holland Park",51.5095124,-0.20392722582941403
346,5000000.0,4 bedroom semi-detached house for sale,"Warwick Gardens, Kensington, London, W14",http://www.rightmove.co.uk/properties/135515642#/?channel=RES_BUY,http://www.rightmove.co.uk/estate-agents/agent/Russell-Simpson/Kensington-204992.html,W14,,4.0,2023-06-26 06:17:25.260747,Semi-Detached,4.0,3.0,294.0,"Warwick Gardens, Kensington",51.4971683,-0.204545
347,5000000.0,5 bedroom apartment for sale,"Oakwood Court, London, W14",http://www.rightmove.co.uk/properties/135108896#/?channel=RES_BUY,http://www.rightmove.co.uk/estate-agents/agent/Brooke-Carter/Knightsbridge-131095.html,W14,,5.0,2023-06-26 06:17:25.260747,Apartment,5.0,4.0,220.0,"Oakwood Court, London",51.4997972,-0.2060281
351,4995000.0,3 bedroom flat for sale,"Bramham Gardens, South Kensington, London, SW5",http://www.rightmove.co.uk/properties/135828395#/?channel=RES_BUY,http://www.rightmove.co.uk/estate-agents/agent/Foxtons/Earls-Court-108515.html,SW5,,3.0,2023-06-26 06:17:25.260747,Flat,3.0,2.0,236.0,"Bramham Gardens, South Kensington",51.490671,-0.1900161
361,4950000.0,4 bedroom terraced house for sale,"Paultons Square, Chelsea, London, SW3",http://www.rightmove.co.uk/properties/135643784#/?channel=RES_BUY,http://www.rightmove.co.uk/estate-agents/agent/Russell-Simpson/Chelsea-46451.html,SW3,,4.0,2023-06-26 06:17:25.260747,Terraced,4.0,3.0,209.0,"Paultons Square, Chelsea",51.483865,-0.1734098
368,4750000.0,8 bedroom terraced house for sale,"Lawrence Street, Chelsea, London, SW3",http://www.rightmove.co.uk/properties/136265216#/?channel=RES_BUY,http://www.rightmove.co.uk/estate-agents/agent/Russell-Simpson/Chelsea-46451.html,SW3,,8.0,2023-06-26 06:17:25.260747,Terraced,8.0,3.0,299.0,"Lawrence Street, Chelsea",51.4839717,-0.17033306070160018
372,4750000.0,3 bedroom apartment for sale,"Lansdowne Road, London, W11",http://www.rightmove.co.uk/properties/134717846#/?channel=RES_BUY,http://www.rightmove.co.uk/estate-agents/agent/DS-Churchill/London-200708.html,W11,,3.0,2023-06-26 06:17:25.260747,Apartment,3.0,2.0,204.0,"Lansdowne Road, London",51.5918995,0.0240164
374,4750000.0,4 bedroom maisonette for sale,"Draycott Avenue, London, SW3",http://www.rightmove.co.uk/properties/132314891#/?channel=RES_BUY,http://www.rightmove.co.uk/estate-agents/agent/Clifton-Agency/London-257474.html,SW3,,4.0,2023-06-26 06:17:25.260747,Maisonette,4.0,3.0,233.0,"Draycott Avenue, London",51.57688,-0.3072834
375,850000.0,1 bedroom apartment for sale,"Brunswick Gardens, Kensington, London, W8",http://www.rightmove.co.uk/properties/135352073#/?channel=RES_BUY,http://www.rightmove.co.uk/estate-agents/agent/Russell-Simpson/Kensington-204992.html,W8,,1.0,2023-06-26 06:17:25.260747,Apartment,1.0,1.0,53.0,"Brunswick Gardens, Kensington",51.5066653,-0.1936959
379,4750000.0,8 bedroom terraced house for sale,"Lawrence Street, Chelsea, SW3",http://www.rightmove.co.uk/properties/133376159#/?channel=RES_BUY,http://www.rightmove.co.uk/estate-agents/agent/Maskells-Estate-Agents-Ltd/London-96406.html,SW3,,8.0,2023-06-26 06:17:25.260747,Terraced,8.0,3.0,279.0,"Lawrence Street, Chelsea",51.4839717,-0.17033306070160018
385,4650000.0,5 bedroom terraced house for sale,"Oakley Street, Chelsea, London, SW3",http://www.rightmove.co.uk/properties/135033626#/?channel=RES_BUY,http://www.rightmove.co.uk/estate-agents/agent/Russell-Simpson/Chelsea-46451.html,SW3,,5.0,2023-06-26 06:17:25.260747,Terraced,5.0,3.0,264.0,"Oakley Street, Chelsea",51.4834923,-0.1673313
387,4650000.0,5 bedroom terraced house for sale,Paultons Square SW3,http://www.rightmove.co.uk/properties/136315457#/?channel=RES_BUY,http://www.rightmove.co.uk/estate-agents/agent/Wilfords-London/Kensington-54072.html,SW3,,5.0,2023-06-26 06:17:25.260747,Terraced,5.0,3.0,229.0,Paultons Square SW3,51.483865,-0.1734098
392,4600000.0,4 bedroom terraced house for sale,"Cliveden Place, 
Belgravia, SW1W",http://www.rightmove.co.uk/properties/136307390#/?channel=RES_BUY,http://www.rightmove.co.uk/estate-agents/agent/Chestertons-Estate-Agents/Knightsbridge-31608.html,SW1W,,4.0,2023-06-26 06:17:25.260747,Terraced,4.0,3.0,243.0,"Cliveden Place, 
Belgravia",51.4938461,-0.1549826
397,4500000.0,3 bedroom terraced house for sale,"Christchurch Street, Chelsea, SW3",http://www.rightmove.co.uk/properties/131869277#/?channel=RES_BUY,http://www.rightmove.co.uk/estate-agents/agent/Russell-Simpson/Chelsea-46451.html,SW3,,3.0,2023-06-26 06:17:25.260747,Terraced,3.0,2.0,193.0,"Christchurch Street, Chelsea",51.4867367,-0.1623483
405,4500000.0,3 bedroom penthouse for sale,"Old Church Street, London, SW3",http://www.rightmove.co.uk/properties/131013557#/?channel=RES_BUY,http://www.rightmove.co.uk/estate-agents/agent/Chapeltons/London-256376.html,SW3,,3.0,2023-06-26 06:17:25.260747,Penthouse,3.0,3.0,182.0,"Old Church Street, London",51.4850447,-0.1726306
409,4500000.0,3 bedroom ground maisonette for sale,"Old Church Street, London, SW3",http://www.rightmove.co.uk/properties/131012678#/?channel=RES_BUY,http://www.rightmove.co.uk/estate-agents/agent/Chapeltons/London-256376.html,SW3,,3.0,2023-06-26 06:17:25.260747,Ground Maisonette,3.0,3.0,196.0,"Old Church Street, London",51.4850447,-0.1726306
411,4400000.0,5 bedroom house for sale,"Abbotsbury Road, Kensington, W14",http://www.rightmove.co.uk/properties/132342779#/?channel=RES_BUY,http://www.rightmove.co.uk/estate-agents/agent/Latymers-Estate-Agents/London-74302.html,W14,,5.0,2023-06-26 06:17:25.260747,House,5.0,4.0,232.0,"Abbotsbury Road, Kensington",51.5020345,-0.2065005
412,4395000.0,4 bedroom house for sale,"Ladbroke Road, Notting Hill, W11",http://www.rightmove.co.uk/properties/131385551#/?channel=RES_BUY,http://www.rightmove.co.uk/estate-agents/agent/Beauchamp-Estates-Ltd/Mayfair---Resale-79099.html,W11,,4.0,2023-06-26 06:17:25.260747,House,4.0,2.0,178.0,"Ladbroke Road, Notting Hill",51.5096587,-0.2002473
414,4350000.0,4 bedroom mews house for sale,"Kendrick Mews, South Kensington, SW7",http://www.rightmove.co.uk/properties/136197311#/?channel=RES_BUY,http://www.rightmove.co.uk/estate-agents/agent/Maskells-Estate-Agents-Ltd/London-96406.html,SW7,,4.0,2023-06-26 06:17:25.260747,Mews,4.0,4.0,212.0,"Kendrick Mews, South Kensington",51.4933197,-0.1766514
419,4300000.0,5 bedroom flat for sale,"Iverna Court, 
Kensington, W8",http://www.rightmove.co.uk/properties/134572610#/?channel=RES_BUY,http://www.rightmove.co.uk/estate-agents/agent/Chestertons-Estate-Agents/Kensington-High-Street-31605.html,W8,,5.0,2023-06-26 06:17:25.260747,Flat,5.0,3.0,183.0,"Iverna Court, 
Kensington",51.5000132,-0.1935424
423,4250000.0,5 bedroom terraced house for sale,"Park Walk, Chelsea, London, SW10",http://www.rightmove.co.uk/properties/135765248#/?channel=RES_BUY,http://www.rightmove.co.uk/estate-agents/agent/Foxtons/South-Kensington-15942.html,SW10,,5.0,2023-06-26 06:17:25.260747,Terraced,5.0,2.0,178.0,"Park Walk, Chelsea",51.4851092,-0.1789894
425,1595000.0,3 bedroom apartment for sale,"Strathmore Gardens, Kensington, London, W8",http://www.rightmove.co.uk/properties/135582674#/?channel=RES_BUY,http://www.rightmove.co.uk/estate-agents/agent/Russell-Simpson/Kensington-204992.html,W8,,3.0,2023-06-26 06:17:25.260747,Apartment,3.0,3.0,125.0,"Strathmore Gardens, Kensington",51.5077551,-0.1942615
428,4250000.0,4 bedroom flat for sale,"Cheyne Court, London, SW3",http://www.rightmove.co.uk/properties/134454581#/?channel=RES_BUY,http://www.rightmove.co.uk/estate-agents/agent/Chapeltons/London-256376.html,SW3,,4.0,2023-06-26 06:17:25.260747,Flat,4.0,3.0,223.0,"Cheyne Court, London",51.4846025,-0.1638202113094731
433,4250000.0,4 bedroom flat for sale,"Cheyne Court, 
Chelsea, SW3",http://www.rightmove.co.uk/properties/134576297#/?channel=RES_BUY,http://www.rightmove.co.uk/estate-agents/agent/Chestertons-Estate-Agents/Chelsea-31554.html,SW3,,4.0,2023-06-26 06:17:25.260747,Flat,4.0,2.0,222.0,"Cheyne Court, 
Chelsea",51.4846025,-0.1638202113094731
435,4250000.0,5 bedroom house for sale,"Finstock Road, London",http://www.rightmove.co.uk/properties/134850236#/?channel=RES_BUY,http://www.rightmove.co.uk/estate-agents/agent/Rigby-And-Marchant/North-Kensington-230237.html,,,5.0,2023-06-26 06:17:25.260747,House,5.0,3.0,311.0,"Finstock Road, London",51.518329,-0.2195229
437,4250000.0,4 bedroom apartment for sale,"Phillimore Gardens, Kensington, London, W8",http://www.rightmove.co.uk/properties/130829039#/?channel=RES_BUY,http://www.rightmove.co.uk/estate-agents/agent/Russell-Simpson/Kensington-204992.html,W8,,4.0,2023-06-26 06:17:25.260747,Apartment,4.0,4.0,200.0,"Phillimore Gardens, Kensington",51.4998656,-0.1978711
446,4000000.0,3 bedroom apartment for sale,"Radnor Terrace, Kensington, London, W14",http://www.rightmove.co.uk/properties/125943350#/?channel=RES_BUY,http://www.rightmove.co.uk/estate-agents/agent/Sothebys-International-Realty/London-62080.html,W14,,3.0,2023-06-26 06:17:25.260747,Apartment,3.0,3.0,161.0,"Radnor Terrace, Kensington",51.4959137,-0.2049306
448,4000000.0,3 bedroom mews house for sale,"Princes Gate Mews, 
Knightsbridge, SW7",http://www.rightmove.co.uk/properties/136058906#/?channel=RES_BUY,http://www.rightmove.co.uk/estate-agents/agent/Chestertons-Estate-Agents/Knightsbridge-31608.html,SW7,,3.0,2023-06-26 06:17:25.260747,Mews,3.0,3.0,188.0,"Princes Gate Mews, 
Knightsbridge",51.4984612,-0.1725287
450,4000000.0,2 bedroom apartment for sale,"Hans Crescent, Knightsbridge, London, SW1X",http://www.rightmove.co.uk/properties/131896937#/?channel=RES_BUY,http://www.rightmove.co.uk/estate-agents/agent/Knightsbridge-Estate/Mayfair-111955.html,SW1X,,2.0,2023-06-26 06:17:25.260747,Apartment,2.0,2.0,110.0,"Hans Crescent, Knightsbridge",51.4999285,-0.1626493
452,4000000.0,5 bedroom house for sale,"Highlever Road, London",http://www.rightmove.co.uk/properties/128909423#/?channel=RES_BUY,http://www.rightmove.co.uk/estate-agents/agent/Rigby-And-Marchant/North-Kensington-230237.html,,,5.0,2023-06-26 06:17:25.260747,House,5.0,4.0,306.0,"Highlever Road, London",51.5201117,-0.2242863
453,4000000.0,5 bedroom terraced house for sale,"Highlever Road, London, W10",http://www.rightmove.co.uk/properties/128873933#/?channel=RES_BUY,http://www.rightmove.co.uk/estate-agents/agent/Mountgrange-Heritage/North-Kensington-84580.html,W10,,5.0,2023-06-26 06:17:25.260747,Terraced,5.0,4.0,315.0,"Highlever Road, London",51.5201117,-0.2242863
454,4000000.0,2 bedroom apartment for sale,"Hans Crescent, Knightsbridge, London, SW1X",http://www.rightmove.co.uk/properties/131896937#/?channel=RES_BUY,http://www.rightmove.co.uk/estate-agents/agent/Knightsbridge-Estate/Mayfair-111955.html,SW1X,,2.0,2023-06-26 06:17:25.260747,Apartment,2.0,2.0,110.0,"Hans Crescent, Knightsbridge",51.4999285,-0.1626493
457,4000000.0,4 bedroom terraced house for sale,"Inkerman Terrace, Kensington, W8",http://www.rightmove.co.uk/properties/134290778#/?channel=RES_BUY,http://www.rightmove.co.uk/estate-agents/agent/Maskells-Estate-Agents-Ltd/London-96406.html,W8,,4.0,2023-06-26 06:17:25.260747,Terraced,4.0,2.0,200.0,"Inkerman Terrace, Kensington",51.49684775,-0.19389266926776355
458,4000000.0,6 bedroom house for sale,"Finstock Road, London",http://www.rightmove.co.uk/properties/134101883#/?channel=RES_BUY,http://www.rightmove.co.uk/estate-agents/agent/Rigby-And-Marchant/North-Kensington-230237.html,,,6.0,2023-06-26 06:17:25.260747,House,6.0,4.0,318.0,"Finstock Road, London",51.518329,-0.2195229
459,4000000.0,4 bedroom flat for sale,"Old Court Place, High Street Kensington, London, W8",http://www.rightmove.co.uk/properties/129689456#/?channel=RES_BUY,http://www.rightmove.co.uk/estate-agents/agent/Foxtons/Notting-Hill-15945.html,W8,,4.0,2023-06-26 06:17:25.260747,Flat,4.0,3.0,191.0,"Old Court Place, High Street Kensington",,
463,3995000.0,4 bedroom house for sale,"Limerston Street, London",http://www.rightmove.co.uk/properties/135570014#/?channel=RES_BUY,http://www.rightmove.co.uk/estate-agents/agent/Aylesford-International/Chelsea-42848.html,,,4.0,2023-06-26 06:17:25.260747,House,4.0,4.0,184.0,"Limerston Street, London",51.4829939,-0.1779174
469,3950000.0,4 bedroom flat for sale,"Cadogan Gardens, Sloane Square, London, SW3",http://www.rightmove.co.uk/properties/135287357#/?channel=RES_BUY,http://www.rightmove.co.uk/estate-agents/agent/Foxtons/Sloane-Square-16023.html,SW3,,4.0,2023-06-26 06:17:25.260747,Flat,4.0,2.0,178.0,"Cadogan Gardens, Sloane Square",,
474,3950000.0,4 bedroom house for sale,"Limerston Street, Chelsea, SW10",http://www.rightmove.co.uk/properties/134858138#/?channel=RES_BUY,http://www.rightmove.co.uk/estate-agents/agent/Garrison-Estates/Notting-Hill-181970.html,SW10,,4.0,2023-06-26 06:17:25.260747,House,4.0,4.0,197.0,"Limerston Street, Chelsea",51.4829939,-0.1779174
480,3950000.0,2 bedroom apartment for sale,"Hans Place, London, SW1X",http://www.rightmove.co.uk/properties/135720110#/?channel=RES_BUY,http://www.rightmove.co.uk/estate-agents/agent/Harding-Green/St-Johns-Wood-250814.html,SW1X,,2.0,2023-06-26 06:17:25.260747,Apartment,2.0,2.0,131.0,"Hans Place, London",51.4974961,-0.1613829
482,3950000.0,3 bedroom apartment for sale,"Queen's Gate Place, 
Queens Gate, SW7",http://www.rightmove.co.uk/properties/135234551#/?channel=RES_BUY,http://www.rightmove.co.uk/estate-agents/agent/Chestertons-Estate-Agents/South-Kensington-51955.html,SW7,,3.0,2023-06-26 06:17:25.260747,Apartment,3.0,3.0,158.0,"Queen's Gate Place, 
Queens Gate",,
485,3950000.0,3 bedroom penthouse for sale,"Cromwell Road, London, SW7",http://www.rightmove.co.uk/properties/120338339#/?channel=RES_BUY,http://www.rightmove.co.uk/estate-agents/agent/Thackerays/London-39899.html,SW7,,3.0,2023-06-26 06:17:25.260747,Penthouse,3.0,4.0,284.0,"Cromwell Road, London",51.4947778,-0.1856916
486,3950000.0,3 bedroom apartment for sale,"Chelsea Towers, Chelsea Manor Gardens, Chelsea, SW3",http://www.rightmove.co.uk/properties/136308929#/?channel=RES_BUY,http://www.rightmove.co.uk/estate-agents/agent/Russell-Simpson/Chelsea-46451.html,SW3,,3.0,2023-06-26 06:17:25.260747,Apartment,3.0,3.0,212.0,"Chelsea Towers, Chelsea Manor Gardens",51.486595,-0.16816636379337824
487,3950000.0,2 bedroom apartment for sale,"Hans Place, London, SW1X",http://www.rightmove.co.uk/properties/136334033#/?channel=RES_BUY,http://www.rightmove.co.uk/estate-agents/agent/Harding-Green/London-181964.html,SW1X,,2.0,2023-06-26 06:17:25.260747,Apartment,2.0,2.0,131.0,"Hans Place, London",51.4974961,-0.1613829
491,3900000.0,4 bedroom flat for sale,"Alexandra Court, Queen's Gate, London, SW7",http://www.rightmove.co.uk/properties/132263069#/?channel=RES_BUY,http://www.rightmove.co.uk/estate-agents/agent/One-London/London-256565.html,SW7,,4.0,2023-06-26 06:17:25.260747,Flat,4.0,3.0,190.0,"Alexandra Court, Queen's Gate",51.4982683,-0.17897296025117385
492,3850000.0,3 bedroom house for sale,"Addison Avenue, London",http://www.rightmove.co.uk/properties/136077005#/?channel=RES_BUY,http://www.rightmove.co.uk/estate-agents/agent/Noahs-London/London-223559.html,,,3.0,2023-06-26 06:17:25.260747,House,3.0,3.0,191.0,"Addison Avenue, London",51.4764266,-0.3580093
506,3800000.0,5 bedroom penthouse for sale,"Queen's Gate, London, SW7",http://www.rightmove.co.uk/properties/131786159#/?channel=RES_BUY,http://www.rightmove.co.uk/estate-agents/agent/DDREglobal/London-79209.html,SW7,,5.0,2023-06-26 06:17:25.260747,Penthouse,5.0,4.0,209.0,"Queen's Gate, London",51.4828772,-0.1148851
511,3750000.0,2 bedroom flat for sale,"Fordham Court, London, W8",http://www.rightmove.co.uk/properties/124151588#/?channel=RES_BUY,http://www.rightmove.co.uk/estate-agents/agent/Beauchamp-Estates-Ltd/Mayfair---Resale-79099.html,W8,,2.0,2023-06-26 06:17:25.260747,Flat,2.0,3.0,183.0,"Fordham Court, London",51.500967700000004,-0.184730515876627
514,3750000.0,3 bedroom apartment for sale,"Culford Gardens, London, SW3",http://www.rightmove.co.uk/properties/133001027#/?channel=RES_BUY,http://www.rightmove.co.uk/estate-agents/agent/DDREglobal/London-79209.html,SW3,,3.0,2023-06-26 06:17:25.260747,Apartment,3.0,3.0,163.0,"Culford Gardens, London",51.4917175,-0.1611339
515,3750000.0,3 bedroom penthouse for sale,"Egerton Gardens, Knightsbridge, SW3",http://www.rightmove.co.uk/properties/127911305#/?channel=RES_BUY,http://www.rightmove.co.uk/estate-agents/agent/Ashdown-Marks/London-74358.html,SW3,,3.0,2023-06-26 06:17:25.260747,Penthouse,3.0,3.0,142.0,"Egerton Gardens, Knightsbridge",,
518,3750000.0,2 bedroom apartment for sale,"Essoldo House, Old Church Street, Chelsea, SW3",http://www.rightmove.co.uk/properties/134228528#/?channel=RES_BUY,http://www.rightmove.co.uk/estate-agents/agent/Russell-Simpson/Chelsea-46451.html,SW3,,2.0,2023-06-26 06:17:25.260747,Apartment,2.0,2.0,144.0,"Essoldo House, Old Church Street",,
519,3750000.0,4 bedroom terraced house for sale,"Sydney Street, Chelsea, London, SW3",http://www.rightmove.co.uk/properties/136147268#/?channel=RES_BUY,http://www.rightmove.co.uk/estate-agents/agent/Foxtons/Sloane-Square-16023.html,SW3,,4.0,2023-06-26 06:17:25.260747,Terraced,4.0,3.0,206.0,"Sydney Street, Chelsea",51.4892875,-0.1700301
525,1500000.0,2 bedroom apartment for sale,"Redcliffe Square, Chelsea, London, SW10",http://www.rightmove.co.uk/properties/134106587#/?channel=RES_BUY,http://www.rightmove.co.uk/estate-agents/agent/Russell-Simpson/Chelsea-46451.html,SW10,,2.0,2023-06-26 06:17:25.260747,Apartment,2.0,2.0,93.0,"Redcliffe Square, Chelsea",51.4876957,-0.1886722
536,3650000.0,5 bedroom house for sale,"Hogarth Road, Earls Court, London, SW5",http://www.rightmove.co.uk/properties/133791377#/?channel=RES_BUY,http://www.rightmove.co.uk/estate-agents/agent/Foxtons/Earls-Court-108515.html,SW5,,5.0,2023-06-26 06:17:25.260747,House,5.0,3.0,265.0,"Hogarth Road, Earls Court",,
537,3650000.0,5 bedroom house for sale,"Hogarth Road, 
Earls Court, SW5",http://www.rightmove.co.uk/properties/133726265#/?channel=RES_BUY,http://www.rightmove.co.uk/estate-agents/agent/Chestertons-Estate-Agents/South-Kensington-51955.html,SW5,,5.0,2023-06-26 06:17:25.260747,House,5.0,3.0,265.0,"Hogarth Road, 
Earls Court",,
540,3650000.0,3 bedroom house for sale,"Hesper Mews, South Kensington, London, SW5",http://www.rightmove.co.uk/properties/133653899#/?channel=RES_BUY,http://www.rightmove.co.uk/estate-agents/agent/Foxtons/Earls-Court-108515.html,SW5,,3.0,2023-06-26 06:17:25.260747,House,3.0,3.0,170.0,"Hesper Mews, South Kensington",51.4918707,-0.1899283
556,3500000.0,3 bedroom mews house for sale,"Petersham Mews, London, SW7",http://www.rightmove.co.uk/properties/130994366#/?channel=RES_BUY,http://www.rightmove.co.uk/estate-agents/agent/Rose-and-Partners/London-182015.html,SW7,,3.0,2023-06-26 06:17:25.260747,Mews,3.0,3.0,212.0,"Petersham Mews, London",51.49738,-0.1814739
557,3500000.0,3 bedroom mews house for sale,"Petersham Mews, 
South Kensington, SW7",http://www.rightmove.co.uk/properties/136173983#/?channel=RES_BUY,http://www.rightmove.co.uk/estate-agents/agent/Chestertons-Estate-Agents/South-Kensington-51955.html,SW7,,3.0,2023-06-26 06:17:25.260747,Mews,3.0,3.0,209.0,"Petersham Mews, 
South Kensington",51.49738,-0.1814739
559,3500000.0,3 bedroom flat for sale,"Sloane Street, Knightsbridge, London, SW1X",http://www.rightmove.co.uk/properties/79294621#/?channel=RES_BUY,http://www.rightmove.co.uk/estate-agents/agent/Foxtons/Sloane-Square-16023.html,SW1X,,3.0,2023-06-26 06:17:25.260747,Flat,3.0,2.0,170.0,"Sloane Street, Knightsbridge",51.501601,-0.1604201
563,3500000.0,3 bedroom apartment for sale,"Thistle Grove, Chelsea, London, SW10",http://www.rightmove.co.uk/properties/126994769#/?channel=RES_BUY,http://www.rightmove.co.uk/estate-agents/agent/Russell-Simpson/Chelsea-46451.html,SW10,,3.0,2023-06-26 06:17:25.260747,Apartment,3.0,3.0,220.0,"Thistle Grove, Chelsea",51.4897062,-0.1814396
568,3500000.0,3 bedroom flat for sale,"Queens Gate Gardens, South Kensington, SW7",http://www.rightmove.co.uk/properties/129542375#/?channel=RES_BUY,http://www.rightmove.co.uk/estate-agents/agent/Beauchamp-Estates-Ltd/Mayfair---Resale-79099.html,SW7,,3.0,2023-06-26 06:17:25.260747,Flat,3.0,3.0,173.0,"Queens Gate Gardens, South Kensington",51.495416750000004,-0.18049088465166724
579,3500000.0,3 bedroom apartment for sale,"Knightsbridge Court, Sloane Street, London",http://www.rightmove.co.uk/properties/130060412#/?channel=RES_BUY,http://www.rightmove.co.uk/estate-agents/agent/OSullivan-Property/London-139934.html,,,3.0,2023-06-26 06:17:25.260747,Apartment,3.0,3.0,112.0,"Knightsbridge Court, Sloane Street",51.50039105,-0.16057513268874277
583,3500000.0,3 bedroom flat for sale,"Tite Street, Chelsea, London, SW3",http://www.rightmove.co.uk/properties/126616265#/?channel=RES_BUY,http://www.rightmove.co.uk/estate-agents/agent/Foxtons/Sloane-Square-16023.html,SW3,,3.0,2023-06-26 06:17:25.260747,Flat,3.0,2.0,163.0,"Tite Street, Chelsea",51.484424,-0.1593034
588,3500000.0,3 bedroom apartment for sale,"Egerton Place, Knightsbridge SW3",http://www.rightmove.co.uk/properties/132186188#/?channel=RES_BUY,http://www.rightmove.co.uk/estate-agents/agent/James-Vaughan-Properties-Ltd/Knightsbridge-236471.html,SW3,,3.0,2023-06-26 06:17:25.260747,Apartment,3.0,2.0,151.0,"Egerton Place, Knightsbridge SW3",,
595,3495000.0,2 bedroom apartment for sale,"Empire House, Thurloe Place, SW7",http://www.rightmove.co.uk/properties/136033142#/?channel=RES_BUY,http://www.rightmove.co.uk/estate-agents/agent/Maskells-Estate-Agents-Ltd/London-96406.html,SW7,,2.0,2023-06-26 06:17:25.260747,Apartment,2.0,3.0,156.0,"Empire House, Thurloe Place",51.4961341,-0.16960006818885445
597,3450000.0,2 bedroom house for sale,"Lennox Gardens, Knightsbridge, London, SW1X",http://www.rightmove.co.uk/properties/85944720#/?channel=RES_BUY,http://www.rightmove.co.uk/estate-agents/agent/Aylesford-International/Chelsea-42848.html,SW1X,,2.0,2023-06-26 06:17:25.260747,House,2.0,2.0,115.0,"Lennox Gardens, Knightsbridge",,
603,3450000.0,3 bedroom town house for sale,"Kensington Court Place, London, W8",http://www.rightmove.co.uk/properties/134471138#/?channel=RES_BUY,http://www.rightmove.co.uk/estate-agents/agent/Thackerays/London-39899.html,W8,,3.0,2023-06-26 06:17:25.260747,Town House,3.0,3.0,173.0,"Kensington Court Place, London",51.5002639,-0.1878583
604,3400000.0,4 bedroom flat for sale,"Iverna Court, 
Kensington, W8",http://www.rightmove.co.uk/properties/136004009#/?channel=RES_BUY,http://www.rightmove.co.uk/estate-agents/agent/Chestertons-Estate-Agents/Kensington-High-Street-31605.html,W8,,4.0,2023-06-26 06:17:25.260747,Flat,4.0,2.0,160.0,"Iverna Court, 
Kensington",51.5000132,-0.1935424
609,3395000.0,3 bedroom terraced house for sale,"Bywater Street, 
Chelsea, SW3",http://www.rightmove.co.uk/properties/133539218#/?channel=RES_BUY,http://www.rightmove.co.uk/estate-agents/agent/Chestertons-Estate-Agents/Chelsea-31554.html,SW3,,3.0,2023-06-26 06:17:25.260747,Terraced,3.0,2.0,206.0,"Bywater Street, 
Chelsea",51.4901728,-0.1639273
613,3350000.0,3 bedroom terraced house for sale,"Onslow Mews West, 
South Kensington, SW7",http://www.rightmove.co.uk/properties/135746537#/?channel=RES_BUY,http://www.rightmove.co.uk/estate-agents/agent/Chestertons-Estate-Agents/South-Kensington-51955.html,SW7,,3.0,2023-06-26 06:17:25.260747,Terraced,3.0,3.0,169.0,"Onslow Mews West, 
South Kensington",51.4915645,-0.1772603
620,3295000.0,2 bedroom flat for sale,"Stanhope Gardens, 
Queens Gate, SW7",http://www.rightmove.co.uk/properties/133848470#/?channel=RES_BUY,http://www.rightmove.co.uk/estate-agents/agent/Chestertons-Estate-Agents/South-Kensington-51955.html,SW7,,2.0,2023-06-26 06:17:25.260747,Flat,2.0,2.0,158.0,"Stanhope Gardens, 
Queens Gate",,
622,3275000.0,3 bedroom flat for sale,"Wilbraham Place, Chelsea SW1X",http://www.rightmove.co.uk/properties/133296920#/?channel=RES_BUY,http://www.rightmove.co.uk/estate-agents/agent/Ashdown-Marks/London-74358.html,SW1X,,3.0,2023-06-26 06:17:25.260747,Flat,3.0,2.0,134.0,"Wilbraham Place, Chelsea SW1X",,
627,3250000.0,3 bedroom end of terrace house for sale,"Queensdale Place, London, Kensington & Chelsea, W11",http://www.rightmove.co.uk/properties/135520847#/?channel=RES_BUY,http://www.rightmove.co.uk/estate-agents/agent/Sandersons/Holland-Park-and-Notting-Hill-86681.html,W11,,3.0,2023-06-26 06:17:25.260747,End of Terrace,3.0,3.0,152.0,"Queensdale Place, London",51.5072161,-0.2139888
631,3250000.0,4 bedroom terraced house for sale,"Highlever Road, London, W10",http://www.rightmove.co.uk/properties/130116065#/?channel=RES_BUY,http://www.rightmove.co.uk/estate-agents/agent/Mountgrange-Heritage/North-Kensington-84580.html,W10,,4.0,2023-06-26 06:17:25.260747,Terraced,4.0,3.0,234.0,"Highlever Road, London",51.5201117,-0.2242863
642,3250000.0,4 bedroom maisonette for sale,"Holland Park Gardens, London W14",http://www.rightmove.co.uk/properties/129988214#/?channel=RES_BUY,http://www.rightmove.co.uk/estate-agents/agent/The-Modern-House/London-65243.html,W14,,4.0,2023-06-26 06:17:25.260747,Maisonette,4.0,3.0,193.0,"Holland Park Gardens, London W14",51.5047024,-0.2111512
643,3250000.0,2 bedroom apartment for sale,"Pont Street, Knightsbridge, London, SW1X",http://www.rightmove.co.uk/properties/135807785#/?channel=RES_BUY,http://www.rightmove.co.uk/estate-agents/agent/Godson-des-Forges/London-246215.html,SW1X,,2.0,2023-06-26 06:17:25.260747,Apartment,2.0,2.0,121.0,"Pont Street, Knightsbridge",51.4964566,-0.16296615969675513
645,3250000.0,4 bedroom maisonette for sale,"Holland Park Gardens, Holland Park, London, W14",http://www.rightmove.co.uk/properties/127928888#/?channel=RES_BUY,http://www.rightmove.co.uk/estate-agents/agent/Foxtons/Notting-Hill-15945.html,W14,,4.0,2023-06-26 06:17:25.260747,Maisonette,4.0,3.0,193.0,"Holland Park Gardens, Holland Park",51.5048155,-0.2107361556726089
650,6950000.0,3 bedroom semi-detached house for sale,"Avondale Park, London W11",http://www.rightmove.co.uk/properties/133391615#/?channel=RES_BUY,http://www.rightmove.co.uk/estate-agents/agent/The-Modern-House/London-65243.html,W11,,3.0,2023-06-26 06:17:25.260747,Semi-Detached,3.0,3.0,308.0,"Avondale Park, London W11",51.5115397,-0.2140361
651,3250000.0,5 bedroom mews house for sale,"Spear Mews, 
Earls Court, SW5",http://www.rightmove.co.uk/properties/126437735#/?channel=RES_BUY,http://www.rightmove.co.uk/estate-agents/agent/Chestertons-Estate-Agents/South-Kensington-51955.html,SW5,,5.0,2023-06-26 06:17:25.260747,Mews,5.0,4.0,180.0,"Spear Mews, 
Earls Court",,
654,3250000.0,3 bedroom flat for sale,"Grove Court, Drayton Gardens, Chelsea, SW10",http://www.rightmove.co.uk/properties/134632037#/?channel=RES_BUY,http://www.rightmove.co.uk/estate-agents/agent/Rokstone/London-176396.html,SW10,,3.0,2023-06-26 06:17:25.260747,Flat,3.0,2.0,152.0,"Grove Court, Drayton Gardens",,
662,3200000.0,3 bedroom apartment for sale,"Hans Place, Knightsbridge, SW1X",http://www.rightmove.co.uk/properties/134725580#/?channel=RES_BUY,http://www.rightmove.co.uk/estate-agents/agent/Maskells-Estate-Agents-Ltd/London-96406.html,SW1X,,3.0,2023-06-26 06:17:25.260747,Apartment,3.0,3.0,104.0,"Hans Place, Knightsbridge",51.4971121,-0.1689326
666,3200000.0,3 bedroom apartment for sale,"Beaufort Gardens, Chelsea, London, SW3",http://www.rightmove.co.uk/properties/135348080#/?channel=RES_BUY,http://www.rightmove.co.uk/estate-agents/agent/Russell-Simpson/Chelsea-46451.html,SW3,,3.0,2023-06-26 06:17:25.260747,Apartment,3.0,2.0,137.0,"Beaufort Gardens, Chelsea",51.4982591,-0.1651639
669,3175000.0,2 bedroom apartment for sale,"Onslow Gardens, South Kensington, London, SW7",http://www.rightmove.co.uk/properties/134023115#/?channel=RES_BUY,http://www.rightmove.co.uk/estate-agents/agent/Russell-Simpson/Chelsea-46451.html,SW7,,2.0,2023-06-26 06:17:25.260747,Apartment,2.0,2.0,175.0,"Onslow Gardens, South Kensington",51.4910047,-0.1775286
670,3150000.0,3 bedroom flat for sale,"Brechin Place, 
South Kensington, SW7",http://www.rightmove.co.uk/properties/136004813#/?channel=RES_BUY,http://www.rightmove.co.uk/estate-agents/agent/Chestertons-Estate-Agents/South-Kensington-51955.html,SW7,,3.0,2023-06-26 06:17:25.260747,Flat,3.0,3.0,140.0,"Brechin Place, 
South Kensington",51.4915949,-0.1804544
684,3050000.0,2 bedroom apartment for sale,"Stone Hall, Kensington Green, W8",http://www.rightmove.co.uk/properties/127314137#/?channel=RES_BUY,http://www.rightmove.co.uk/estate-agents/agent/Jo-Webster-Properties-Ltd/London-139826.html,W8,,2.0,2023-06-26 06:17:25.260747,Apartment,2.0,1.0,149.0,"Stone Hall, Kensington Green",51.4976922,-0.19081474600858442
686,3000000.0,3 bedroom end of terrace house for sale,"The Studio, 
1C Clareville Grove, SW7",http://www.rightmove.co.uk/properties/136010111#/?channel=RES_BUY,http://www.rightmove.co.uk/estate-agents/agent/Chestertons-Estate-Agents/South-Kensington-51955.html,SW7,,3.0,2023-06-26 06:17:25.260747,End of Terrace,3.0,2.0,203.0,"The Studio, 
1C Clareville Grove",,
687,3000000.0,3 bedroom end of terrace house for sale,"Bury Walk, Chelsea, London, SW3",http://www.rightmove.co.uk/properties/86213931#/?channel=RES_BUY,http://www.rightmove.co.uk/estate-agents/agent/Russell-Simpson/Chelsea-46451.html,SW3,,3.0,2023-06-26 06:17:25.260747,End of Terrace,3.0,3.0,159.0,"Bury Walk, Chelsea",51.4903691,-0.1701995
692,3000000.0,5 bedroom house for sale,"Highlever Road, London",http://www.rightmove.co.uk/properties/133616558#/?channel=RES_BUY,http://www.rightmove.co.uk/estate-agents/agent/Rigby-And-Marchant/North-Kensington-230237.html,,,5.0,2023-06-26 06:17:25.260747,House,5.0,3.0,229.0,"Highlever Road, London",51.5201117,-0.2242863
694,3000000.0,3 bedroom maisonette for sale,"Coleherne Road, Chelsea, London, SW10",http://www.rightmove.co.uk/properties/135889775#/?channel=RES_BUY,http://www.rightmove.co.uk/estate-agents/agent/Foxtons/Earls-Court-108515.html,SW10,,3.0,2023-06-26 06:17:25.260747,Maisonette,3.0,3.0,167.0,"Coleherne Road, Chelsea",51.4886178,-0.1909758
697,3000000.0,2 bedroom terraced house for sale,"Kensington Square, Kensington, London, W8",http://www.rightmove.co.uk/properties/132586328#/?channel=RES_BUY,http://www.rightmove.co.uk/estate-agents/agent/Russell-Simpson/Kensington-204992.html,W8,,2.0,2023-06-26 06:17:25.260747,Terraced,2.0,2.0,126.0,"Kensington Square, Kensington",51.5006991,-0.1907409
700,14000000.0,12 bedroom house for sale,"Queen's Gate Place, London, SW7",http://www.rightmove.co.uk/properties/133769975#/?channel=RES_BUY,http://www.rightmove.co.uk/estate-agents/agent/Thackerays/London-39899.html,SW7,,12.0,2023-06-26 06:17:25.260747,House,12.0,8.0,817.0,"Queen's Gate Place, London",51.49738,-0.1814739
702,3000000.0,4 bedroom flat for sale,"Iverna Gardens, 
Kensington, W8",http://www.rightmove.co.uk/properties/134808980#/?channel=RES_BUY,http://www.rightmove.co.uk/estate-agents/agent/Chestertons-Estate-Agents/Kensington-High-Street-31605.html,W8,,4.0,2023-06-26 06:17:25.260747,Flat,4.0,2.0,168.0,"Iverna Gardens, 
Kensington",51.4997498,-0.1939158
708,3000000.0,3 bedroom mews house for sale,"St. Catherines Mews, Chelsea, SW3",http://www.rightmove.co.uk/properties/132156590#/?channel=RES_BUY,http://www.rightmove.co.uk/estate-agents/agent/BAARTZ/London-254108.html,SW3,,3.0,2023-06-26 06:17:25.260747,Mews,3.0,2.0,160.0,"St. Catherines Mews, Chelsea",,
710,3000000.0,3 bedroom terraced house for sale,"Sprimont Place, Chelsea, London, SW3",http://www.rightmove.co.uk/properties/134099171#/?channel=RES_BUY,http://www.rightmove.co.uk/estate-agents/agent/Foxtons/Sloane-Square-16023.html,SW3,,3.0,2023-06-26 06:17:25.260747,Terraced,3.0,2.0,129.0,"Sprimont Place, Chelsea",51.4910781,-0.1643545
718,2995000.0,3 bedroom house for sale,"Phene Street, Chelsea, London, SW3",http://www.rightmove.co.uk/properties/85722060#/?channel=RES_BUY,http://www.rightmove.co.uk/estate-agents/agent/Foxtons/Sloane-Square-16023.html,SW3,,3.0,2023-06-26 06:17:25.260747,House,3.0,3.0,157.0,"Phene Street, Chelsea",51.4850041,-0.1677719
721,2995000.0,4 bedroom flat for sale,"Thurloe Square, South Kensington, London, SW7",http://www.rightmove.co.uk/properties/134748608#/?channel=RES_BUY,http://www.rightmove.co.uk/estate-agents/agent/Foxtons/South-Kensington-15942.html,SW7,,4.0,2023-06-26 06:17:25.260747,Flat,4.0,3.0,186.0,"Thurloe Square, South Kensington",51.4941231,-0.1720171
722,2995000.0,3 bedroom apartment for sale,"Coleherne Court, The Little Boltons, SW5",http://www.rightmove.co.uk/properties/134688890#/?channel=RES_BUY,http://www.rightmove.co.uk/estate-agents/agent/Maskells-Estate-Agents-Ltd/London-96406.html,SW5,,3.0,2023-06-26 06:17:25.260747,Apartment,3.0,3.0,141.0,"Coleherne Court, The Little Boltons",,
734,2950000.0,2 bedroom penthouse for sale,"Onslow Square, South Kensington, London, SW7",http://www.rightmove.co.uk/properties/131028545#/?channel=RES_BUY,http://www.rightmove.co.uk/estate-agents/agent/Godson-des-Forges/London-246215.html,SW7,,2.0,2023-06-26 06:17:25.260747,Penthouse,2.0,2.0,128.0,"Onslow Square, South Kensington",51.49241935,-0.1735685143387274
736,2950000.0,3 bedroom apartment for sale,"Ladbroke Grove, London, W11",http://www.rightmove.co.uk/properties/135003878#/?channel=RES_BUY,http://www.rightmove.co.uk/estate-agents/agent/Munday-Crowley-Property-Consultants/Notting-Hill-227960.html,W11,,3.0,2023-06-26 06:17:25.260747,Apartment,3.0,2.0,158.0,"Ladbroke Grove, London",51.5172639,-0.2111019
738,2950000.0,2 bedroom flat for sale,"Cadogan Square, Knightsbridge, SW1X",http://www.rightmove.co.uk/properties/130709300#/?channel=RES_BUY,http://www.rightmove.co.uk/estate-agents/agent/Beauchamp-Estates-Ltd/Mayfair---Resale-79099.html,SW1X,,2.0,2023-06-26 06:17:25.260747,Flat,2.0,2.0,97.0,"Cadogan Square, Knightsbridge",,
740,2950000.0,4 bedroom flat for sale,Drayton Court  Drayton Gardens,http://www.rightmove.co.uk/properties/133116452#/?channel=RES_BUY,http://www.rightmove.co.uk/estate-agents/agent/Aylesford-International/Chelsea-42848.html,,,4.0,2023-06-26 06:17:25.260747,Flat,4.0,3.0,170.0,Drayton Court  Drayton Gardens,51.48803035,-0.18069831697224642
741,2950000.0,4 bedroom flat for sale,"Iverna Court, London, W8",http://www.rightmove.co.uk/properties/128053256#/?channel=RES_BUY,http://www.rightmove.co.uk/estate-agents/agent/Thackerays/London-39899.html,W8,,4.0,2023-06-26 06:17:25.260747,Flat,4.0,3.0,157.0,"Iverna Court, London",51.5000132,-0.1935424
743,2950000.0,4 bedroom flat for sale,"Iverna Gardens, 
Kensington, W8",http://www.rightmove.co.uk/properties/132880277#/?channel=RES_BUY,http://www.rightmove.co.uk/estate-agents/agent/Chestertons-Estate-Agents/Kensington-High-Street-31605.html,W8,,4.0,2023-06-26 06:17:25.260747,Flat,4.0,2.0,160.0,"Iverna Gardens, 
Kensington",51.4997498,-0.1939158
746,2950000.0,4 bedroom flat for sale,"Iverna Gardens, London, W8",http://www.rightmove.co.uk/properties/129831962#/?channel=RES_BUY,http://www.rightmove.co.uk/estate-agents/agent/Mountgrange-Heritage/Kensington-32328.html,W8,,4.0,2023-06-26 06:17:25.260747,Flat,4.0,2.0,159.0,"Iverna Gardens, London",51.4606117,-0.4326896
761,2850000.0,2 bedroom apartment for sale,"Pont Street, London, SW1X",http://www.rightmove.co.uk/properties/133351211#/?channel=RES_BUY,http://www.rightmove.co.uk/estate-agents/agent/Aldersley-London-Ltd/London-250187.html,SW1X,,2.0,2023-06-26 06:17:25.260747,Apartment,2.0,2.0,90.0,"Pont Street, London",51.497499,-0.156188
767,2850000.0,5 bedroom semi-detached house for sale,"Gunter Grove, Chelsea, London, SW10",http://www.rightmove.co.uk/properties/125719658#/?channel=RES_BUY,http://www.rightmove.co.uk/estate-agents/agent/Foxtons/Earls-Court-108515.html,SW10,,5.0,2023-06-26 06:17:25.260747,Semi-Detached,5.0,3.0,204.0,"Gunter Grove, Chelsea",51.482462,-0.1845659
782,2800000.0,4 bedroom penthouse for sale,"Queen's Gate, London, SW7",http://www.rightmove.co.uk/properties/134005481#/?channel=RES_BUY,http://www.rightmove.co.uk/estate-agents/agent/DDREglobal/London-79209.html,SW7,,4.0,2023-06-26 06:17:25.260747,Penthouse,4.0,3.0,153.0,"Queen's Gate, London",51.4828772,-0.1148851
789,2795000.0,4 bedroom terraced house for sale,"Kelfield Gardens, London, W10",http://www.rightmove.co.uk/properties/131028860#/?channel=RES_BUY,http://www.rightmove.co.uk/estate-agents/agent/Mountgrange-Heritage/North-Kensington-84580.html,W10,,4.0,2023-06-26 06:17:25.260747,Terraced,4.0,2.0,198.0,"Kelfield Gardens, London",51.5178497,-0.2216325
792,2795000.0,2 bedroom flat for sale,"Egerton Gardens, 
Knightsbridge, SW3",http://www.rightmove.co.uk/properties/132569318#/?channel=RES_BUY,http://www.rightmove.co.uk/estate-agents/agent/Chestertons-Estate-Agents/Knightsbridge-31608.html,SW3,,2.0,2023-06-26 06:17:25.260747,Flat,2.0,2.0,156.0,"Egerton Gardens, 
Knightsbridge",,
800,800000.0,1 bedroom flat for sale,"Hollywood Road, Chelsea, London, SW10",http://www.rightmove.co.uk/properties/133072745#/?channel=RES_BUY,http://www.rightmove.co.uk/estate-agents/agent/Foxtons/Earls-Court-108515.html,SW10,,1.0,2023-06-26 06:17:25.260747,Flat,1.0,1.0,62.0,"Hollywood Road, Chelsea",51.4855095,-0.1834942
804,2750000.0,2 bedroom apartment for sale,"Cheyne Gardens, Chelsea, London, SW3",http://www.rightmove.co.uk/properties/132465926#/?channel=RES_BUY,http://www.rightmove.co.uk/estate-agents/agent/Russell-Simpson/Chelsea-46451.html,SW3,,2.0,2023-06-26 06:17:25.260747,Apartment,2.0,2.0,129.0,"Cheyne Gardens, Chelsea",51.4843519,-0.1655624
811,2750000.0,3 bedroom house for sale,"Farm Place, Hillgate Village, London, W8",http://www.rightmove.co.uk/properties/136435292#/?channel=RES_BUY,http://www.rightmove.co.uk/estate-agents/agent/Foxtons/Notting-Hill-15945.html,W8,,3.0,2023-06-26 06:17:25.260747,House,3.0,2.0,182.0,"Farm Place, Hillgate Village",,
812,2750000.0,3 bedroom maisonette for sale,"Wornington Road, London W10",http://www.rightmove.co.uk/properties/86120826#/?channel=RES_BUY,http://www.rightmove.co.uk/estate-agents/agent/The-Modern-House/London-65243.html,W10,,3.0,2023-06-26 06:17:25.260747,Maisonette,3.0,3.0,233.0,"Wornington Road, London W10",51.5221107,-0.2076173
814,2750000.0,3 bedroom terraced house for sale,"Burnaby Street, Chelsea",http://www.rightmove.co.uk/properties/132684407#/?channel=RES_BUY,http://www.rightmove.co.uk/estate-agents/agent/Martin-and-Co/Chelsea-39872.html,,,3.0,2023-06-26 06:17:25.260747,Terraced,3.0,3.0,182.0,"Burnaby Street, Chelsea",51.4793288,-0.1817314
817,2750000.0,3 bedroom mews house for sale,"Farm Place, W8",http://www.rightmove.co.uk/properties/136319915#/?channel=RES_BUY,http://www.rightmove.co.uk/estate-agents/agent/Wilfords-London/Kensington-54072.html,W8,,3.0,2023-06-26 06:17:25.260747,Mews,3.0,2.0,176.0,"Farm Place, W8",51.5075696,-0.1986278
818,2750000.0,3 bedroom terraced house for sale,"Campden Hill Gardens, Kensington, London, W8",http://www.rightmove.co.uk/properties/133813535#/?channel=RES_BUY,http://www.rightmove.co.uk/estate-agents/agent/Russell-Simpson/Kensington-204992.html,W8,,3.0,2023-06-26 06:17:25.260747,Terraced,3.0,2.0,198.0,"Campden Hill Gardens, Kensington",51.5074681,-0.1997281
819,2700000.0,2 bedroom flat for sale,"Knightsbridge Court, 12 Sloane Street SW1X",http://www.rightmove.co.uk/properties/118297811#/?channel=RES_BUY,http://www.rightmove.co.uk/estate-agents/agent/Napier-Watt-Limited/London-83443.html,SW1X,,2.0,2023-06-26 06:17:25.260747,Flat,2.0,2.0,97.0,"Knightsbridge Court, 12 Sloane Street SW1X",,
828,2690000.0,3 bedroom apartment for sale,Kensington Church Street W8,http://www.rightmove.co.uk/properties/136315625#/?channel=RES_BUY,http://www.rightmove.co.uk/estate-agents/agent/Wilfords-London/Kensington-54072.html,W8,,3.0,2023-06-26 06:17:25.260747,Apartment,3.0,3.0,165.0,Kensington Church Street W8,51.5033868,-0.1917655
829,2675000.0,3 bedroom house for sale,"St Catherines Mews, SW3",http://www.rightmove.co.uk/properties/134146799#/?channel=RES_BUY,http://www.rightmove.co.uk/estate-agents/agent/STANLEY-PROPERTY-LONDON/Chelsea-34115.html,SW3,,3.0,2023-06-26 06:17:25.260747,House,3.0,2.0,149.0,"St Catherines Mews, SW3",,
832,2650000.0,3 bedroom penthouse for sale,"Cornwall Gardens, South Kensington, London, SW7",http://www.rightmove.co.uk/properties/127767785#/?channel=RES_BUY,http://www.rightmove.co.uk/estate-agents/agent/Foxtons/South-Kensington-15942.html,SW7,,3.0,2023-06-26 06:17:25.260747,Penthouse,3.0,2.0,131.0,"Cornwall Gardens, South Kensington",51.4968954,-0.1850318
833,2650000.0,4 bedroom flat for sale,"Coleherne Court, 
Old Brompton Road, SW5",http://www.rightmove.co.uk/properties/134112095#/?channel=RES_BUY,http://www.rightmove.co.uk/estate-agents/agent/Chestertons-Estate-Agents/Chelsea-31554.html,SW5,,4.0,2023-06-26 06:17:25.260747,Flat,4.0,2.0,153.0,"Coleherne Court, 
Old Brompton Road",51.4895643,-0.18911284222979502
841,2650000.0,4 bedroom mews house for sale,"Pottery Lane, London, W11",http://www.rightmove.co.uk/properties/128652875#/?channel=RES_BUY,http://www.rightmove.co.uk/estate-agents/agent/Simon-Deen-Real-Estate/London-252320.html,W11,,4.0,2023-06-26 06:17:25.260747,Mews,4.0,3.0,168.0,"Pottery Lane, London",51.5088496,-0.2099108
843,2625000.0,2 bedroom apartment for sale,"Stone Hall, Kensington Green, London, W8 5UU",http://www.rightmove.co.uk/properties/131832398#/?channel=RES_BUY,http://www.rightmove.co.uk/estate-agents/agent/Jo-Webster-Properties-Ltd/London-139826.html,W8,W8 5UU,2.0,2023-06-26 06:17:25.260747,Apartment,2.0,2.0,120.0,"Stone Hall, Kensington Green",51.4976922,-0.19081474600858442
844,2600000.0,3 bedroom flat for sale,"Onslow Gardens, 
South Kensington, SW7",http://www.rightmove.co.uk/properties/134017352#/?channel=RES_BUY,http://www.rightmove.co.uk/estate-agents/agent/Chestertons-Estate-Agents/South-Kensington-51955.html,SW7,,3.0,2023-06-26 06:17:25.260747,Flat,3.0,2.0,107.0,"Onslow Gardens, 
South Kensington",51.4910047,-0.1775286
856,2500000.0,4 bedroom terraced house for sale,"Smith Terrace, Chelsea SW3 ",http://www.rightmove.co.uk/properties/134329931#/?channel=RES_BUY,http://www.rightmove.co.uk/estate-agents/agent/Nicolas-Van-Patrick/Knightsbridge-189221.html,SW3,,4.0,2023-06-26 06:17:25.260747,Terraced,4.0,2.0,124.0,"Smith Terrace, Chelsea SW3 ",51.487829,-0.1636682
857,2500000.0,2 bedroom penthouse for sale,"Kensington High Street, London, W14",http://www.rightmove.co.uk/properties/133267196#/?channel=RES_BUY,http://www.rightmove.co.uk/estate-agents/agent/DDREglobal/London-79209.html,W14,,2.0,2023-06-26 06:17:25.260747,Penthouse,2.0,2.0,92.0,"Kensington High Street, London",51.4968222,-0.2054223
858,2500000.0,3 bedroom maisonette for sale,"Walton Street, Knightsbridge, London, SW3",http://www.rightmove.co.uk/properties/129491123#/?channel=RES_BUY,http://www.rightmove.co.uk/estate-agents/agent/Foxtons/Sloane-Square-16023.html,SW3,,3.0,2023-06-26 06:17:25.260747,Maisonette,3.0,2.0,99.0,"Walton Street, Knightsbridge",51.4956056,-0.1654874
863,2500000.0,2 bedroom apartment for sale,"Barkston Gardens, London",http://www.rightmove.co.uk/properties/132031280#/?channel=RES_BUY,http://www.rightmove.co.uk/estate-agents/agent/house-Partnership/Covering-London-and-The-Country-161522.html,,,2.0,2023-06-26 06:17:25.260747,Apartment,2.0,2.0,105.0,"Barkston Gardens, London",51.4921315,-0.1902379
866,2500000.0,2 bedroom flat for sale,"Elm Park Gardens, Chelsea, London, SW10",http://www.rightmove.co.uk/properties/132937502#/?channel=RES_BUY,http://www.rightmove.co.uk/estate-agents/agent/Foxtons/South-Kensington-15942.html,SW10,,2.0,2023-06-26 06:17:25.260747,Flat,2.0,2.0,105.0,"Elm Park Gardens, Chelsea",51.4873351,-0.175296
868,2500000.0,4 bedroom flat for sale,"Malvern Court, 
Onslow Square, SW7",http://www.rightmove.co.uk/properties/132917429#/?channel=RES_BUY,http://www.rightmove.co.uk/estate-agents/agent/Chestertons-Estate-Agents/South-Kensington-51955.html,SW7,,4.0,2023-06-26 06:17:25.260747,Flat,4.0,2.0,165.0,"Malvern Court, 
Onslow Square",51.49359695,-0.1734480066378313
869,2500000.0,3 bedroom flat for sale,"Nevern Square, Earls Court, Earls Court, London, SW5",http://www.rightmove.co.uk/properties/135064451#/?channel=RES_BUY,http://www.rightmove.co.uk/estate-agents/agent/Foxtons/Earls-Court-108515.html,SW5,,3.0,2023-06-26 06:17:25.260747,Flat,3.0,2.0,158.0,"Nevern Square, Earls Court",,
870,2500000.0,3 bedroom apartment for sale,"Walton Street, London, SW3",http://www.rightmove.co.uk/properties/129757226#/?channel=RES_BUY,http://www.rightmove.co.uk/estate-agents/agent/Fine-and-Country/London-242960.html,SW3,,3.0,2023-06-26 06:17:25.260747,Apartment,3.0,2.0,98.0,"Walton Street, London",51.6635,-0.0833879
871,2500000.0,5 bedroom house for sale,"Wallingford Avenue, London",http://www.rightmove.co.uk/properties/132971708#/?channel=RES_BUY,http://www.rightmove.co.uk/estate-agents/agent/Rigby-And-Marchant/North-Kensington-230237.html,,,5.0,2023-06-26 06:17:25.260747,House,5.0,3.0,210.0,"Wallingford Avenue, London",51.5180939,-0.2205577
872,2500000.0,4 bedroom semi-detached house for sale,"Kingsbridge Road, London, W10",http://www.rightmove.co.uk/properties/132842906#/?channel=RES_BUY,http://www.rightmove.co.uk/estate-agents/agent/Mountgrange-Heritage/North-Kensington-84580.html,W10,,4.0,2023-06-26 06:17:25.260747,Semi-Detached,4.0,2.0,216.0,"Kingsbridge Road, London",51.518912,-0.2210245
875,2950000.0,2 bedroom flat for sale,"Cadogan Square, Knightsbridge, SW1X",http://www.rightmove.co.uk/properties/130709300#/?channel=RES_BUY,http://www.rightmove.co.uk/estate-agents/agent/Beauchamp-Estates-Ltd/Mayfair---Resale-79099.html,SW1X,,2.0,2023-06-26 06:17:25.260747,Flat,2.0,2.0,97.0,"Cadogan Square, Knightsbridge",,
877,2500000.0,4 bedroom flat for sale,"Onslow Gardens, South Kensington, London, SW7",http://www.rightmove.co.uk/properties/86197329#/?channel=RES_BUY,http://www.rightmove.co.uk/estate-agents/agent/Foxtons/South-Kensington-15942.html,SW7,,4.0,2023-06-26 06:17:25.260747,Flat,4.0,2.0,139.0,"Onslow Gardens, South Kensington",51.4910047,-0.1775286
889,2500000.0,3 bedroom maisonette for sale,"Beaufort Street, 
Chelsea, SW3",http://www.rightmove.co.uk/properties/136475237#/?channel=RES_BUY,http://www.rightmove.co.uk/estate-agents/agent/Chestertons-Estate-Agents/Chelsea-31554.html,SW3,,3.0,2023-06-26 06:17:25.260747,Maisonette,3.0,2.0,147.0,"Beaufort Street, 
Chelsea",51.4832996,-0.1746011
891,2500000.0,3 bedroom apartment for sale,"Oak Lodge, Kensington, W8",http://www.rightmove.co.uk/properties/136082819#/?channel=RES_BUY,http://www.rightmove.co.uk/estate-agents/agent/Maskells-Estate-Agents-Ltd/London-96406.html,W8,,3.0,2023-06-26 06:17:25.260747,Apartment,3.0,2.0,116.0,"Oak Lodge, Kensington",51.4970676,-0.1901699
894,2500000.0,3 bedroom flat for sale,"Clareville Grove, South Kensington, London, SW7",http://www.rightmove.co.uk/properties/133634246#/?channel=RES_BUY,http://www.rightmove.co.uk/estate-agents/agent/Foxtons/South-Kensington-15942.html,SW7,,3.0,2023-06-26 06:17:25.260747,Flat,3.0,2.0,128.0,"Clareville Grove, South Kensington",51.4920549,-0.1795079
895,2500000.0,3 bedroom apartment for sale,Campden Hill Court W8,http://www.rightmove.co.uk/properties/136315463#/?channel=RES_BUY,http://www.rightmove.co.uk/estate-agents/agent/Wilfords-London/Kensington-54072.html,W8,,3.0,2023-06-26 06:17:25.260747,Apartment,3.0,2.0,162.0,Campden Hill Court W8,51.5043292,-0.1999589
897,2500000.0,3 bedroom penthouse for sale,"Trafalgar Gardens, South End Row, London, W8",http://www.rightmove.co.uk/properties/135701879#/?channel=RES_BUY,http://www.rightmove.co.uk/estate-agents/agent/Classic-and-Contemporary/London-240368.html,W8,,3.0,2023-06-26 06:17:25.260747,Penthouse,3.0,3.0,122.0,"Trafalgar Gardens, South End Row",51.49913985,-0.18927977504174176
902,2500000.0,4 bedroom house for sale,"Finstock Road, London",http://www.rightmove.co.uk/properties/135811583#/?channel=RES_BUY,http://www.rightmove.co.uk/estate-agents/agent/Rigby-And-Marchant/North-Kensington-230237.html,,,4.0,2023-06-26 06:17:25.260747,House,4.0,2.0,189.0,"Finstock Road, London",51.518329,-0.2195229
904,2495000.0,3 bedroom ground floor flat for sale,"Flood Street, London, SW3",http://www.rightmove.co.uk/properties/135433733#/?channel=RES_BUY,http://www.rightmove.co.uk/estate-agents/agent/Chapeltons/London-256376.html,SW3,,3.0,2023-06-26 06:17:25.260747,Ground Flat,3.0,2.0,117.0,"Flood Street, London",51.4872988,-0.1662781
907,2495000.0,3 bedroom flat for sale,"Milliner House, Hortensia Road, Chelsea SW10",http://www.rightmove.co.uk/properties/126817337#/?channel=RES_BUY,http://www.rightmove.co.uk/estate-agents/agent/Napier-Watt-Limited/London-83443.html,SW10,,3.0,2023-06-26 06:17:25.260747,Flat,3.0,3.0,148.0,"Milliner House, Hortensia Road",51.4823361,-0.18628694201067694
908,2495000.0,3 bedroom maisonette for sale,"WESTBOURNE GROVE, Notting Hill, London, W11",http://www.rightmove.co.uk/properties/130209404#/?channel=RES_BUY,http://www.rightmove.co.uk/estate-agents/agent/Foxtons/Notting-Hill-15945.html,W11,,3.0,2023-06-26 06:17:25.260747,Maisonette,3.0,2.0,160.0,"WESTBOURNE GROVE, Notting Hill",51.5135978,-0.202874
910,2495000.0,3 bedroom flat for sale,"Kensington High Street, W8",http://www.rightmove.co.uk/properties/129423815#/?channel=RES_BUY,http://www.rightmove.co.uk/estate-agents/agent/Douglas-and-Gordon/Kensington-and-Notting-Hill-52797.html,W8,,3.0,2023-06-26 06:17:25.260747,Flat,3.0,3.0,140.0,"Kensington High Street, W8",51.5022158,-0.1896482
921,2450000.0,3 bedroom maisonette for sale,"Arundel Gardens, London, W11",http://www.rightmove.co.uk/properties/133548389#/?channel=RES_BUY,http://www.rightmove.co.uk/estate-agents/agent/Mountgrange-Heritage/Notting-Hill-32235.html,W11,,3.0,2023-06-26 06:17:25.260747,Maisonette,3.0,2.0,121.0,"Arundel Gardens, London",51.6067704,-0.2569081
922,2450000.0,3 bedroom house for sale,"Cope Place, Kensington, London, W8",http://www.rightmove.co.uk/properties/135933242#/?channel=RES_BUY,http://www.rightmove.co.uk/estate-agents/agent/Foxtons/South-Kensington-15942.html,W8,,3.0,2023-06-26 06:17:25.260747,House,3.0,2.0,147.0,"Cope Place, Kensington",51.4977771,-0.1978312
923,2450000.0,3 bedroom penthouse for sale,"Atherstone House, 
69a Gloucester Road, SW7",http://www.rightmove.co.uk/properties/134470769#/?channel=RES_BUY,http://www.rightmove.co.uk/estate-agents/agent/Chestertons-Estate-Agents/South-Kensington-51955.html,SW7,,3.0,2023-06-26 06:17:25.260747,Penthouse,3.0,3.0,186.0,"Atherstone House, 
69a Gloucester Road",51.49525035,-0.18246415323218992
933,2400000.0,3 bedroom apartment for sale,"Radnor Terrace, Kensington, W14",http://www.rightmove.co.uk/properties/125943353#/?channel=RES_BUY,http://www.rightmove.co.uk/estate-agents/agent/Sothebys-International-Realty/London-62080.html,W14,,3.0,2023-06-26 06:17:25.260747,Apartment,3.0,2.0,105.0,"Radnor Terrace, Kensington",51.4959137,-0.2049306
940,2400000.0,2 bedroom flat for sale,"Whiteheads Grove, Chelsea, London, SW3",http://www.rightmove.co.uk/properties/132937451#/?channel=RES_BUY,http://www.rightmove.co.uk/estate-agents/agent/Foxtons/Sloane-Square-16023.html,SW3,,2.0,2023-06-26 06:17:25.260747,Flat,2.0,2.0,118.0,"Whiteheads Grove, Chelsea",,
950,1250000.0,3 bedroom flat for sale,"Mall Chambers, Kensington Mall W8, W8",http://www.rightmove.co.uk/properties/135632993#/?channel=RES_BUY,http://www.rightmove.co.uk/estate-agents/agent/Chancellors/Notting-Hill-41328.html,W8,,3.0,2023-06-26 06:17:25.260747,Flat,3.0,1.0,66.0,"Mall Chambers, Kensington Mall W8",51.5086659,-0.1940327
953,2375000.0,3 bedroom flat for sale,"Egerton Gardens, 
Knightsbridge, SW3",http://www.rightmove.co.uk/properties/133211801#/?channel=RES_BUY,http://www.rightmove.co.uk/estate-agents/agent/Chestertons-Estate-Agents/Knightsbridge-31608.html,SW3,,3.0,2023-06-26 06:17:25.260747,Flat,3.0,2.0,75.0,"Egerton Gardens, 
Knightsbridge",,
957,2350000.0,3 bedroom terraced house for sale,"Peel Street, Kensington, W8",http://www.rightmove.co.uk/properties/136035755#/?channel=RES_BUY,http://www.rightmove.co.uk/estate-agents/agent/Chancellors/Notting-Hill-41328.html,W8,,3.0,2023-06-26 06:17:25.260747,Terraced,3.0,1.0,101.0,"Peel Street, Kensington",51.5068753,-0.1967197
958,2350000.0,3 bedroom flat for sale,"10 Hornton Street, 
Kensington, W8",http://www.rightmove.co.uk/properties/136015817#/?channel=RES_BUY,http://www.rightmove.co.uk/estate-agents/agent/Chestertons-Estate-Agents/Kensington-High-Street-31605.html,W8,,3.0,2023-06-26 06:17:25.260747,Flat,3.0,2.0,105.0,"10 Hornton Street, 
Kensington",51.5014026,-0.1935244
959,2350000.0,3 bedroom apartment for sale,"Addisland Court, Holland Villas Road, Holland Park, W14",http://www.rightmove.co.uk/properties/124476110#/?channel=RES_BUY,http://www.rightmove.co.uk/estate-agents/agent/Liv-International/London-54583.html,W14,,3.0,2023-06-26 06:17:25.260747,Apartment,3.0,2.0,126.0,"Addisland Court, Holland Villas Road",51.504307299999994,-0.21237835325078558
964,2350000.0,4 bedroom terraced house for sale,"Oxford Gardens, Notting Hill W10",http://www.rightmove.co.uk/properties/131830253#/?channel=RES_BUY,http://www.rightmove.co.uk/estate-agents/agent/Maskells-Estate-Agents-Ltd/London-96406.html,W10,,4.0,2023-06-26 06:17:25.260747,Terraced,4.0,3.0,173.0,"Oxford Gardens, Notting Hill W10",51.5162843,-0.2223349
970,2350000.0,3 bedroom flat for sale,"Lord Kensington House, Radnor Terrace, Kensington, London W14",http://www.rightmove.co.uk/properties/136369886#/?channel=RES_BUY,http://www.rightmove.co.uk/estate-agents/agent/Napier-Watt-Limited/London-83443.html,W14,,3.0,2023-06-26 06:17:25.260747,Flat,3.0,3.0,120.0,"Lord Kensington House, Radnor Terrace",51.49572485,-0.2058195640438728
973,2350000.0,2 bedroom apartment for sale,"Onslow Gardens, South Kensington, London, SW7",http://www.rightmove.co.uk/properties/134072072#/?channel=RES_BUY,http://www.rightmove.co.uk/estate-agents/agent/HLR-Residential/London-121231.html,SW7,,2.0,2023-06-26 06:17:25.260747,Apartment,2.0,2.0,95.0,"Onslow Gardens, South Kensington",51.4910047,-0.1775286
975,800000.0,1 bedroom flat for sale,"Campden Hill Gardens, Notting Hill, W8",http://www.rightmove.co.uk/properties/132687167#/?channel=RES_BUY,http://www.rightmove.co.uk/estate-agents/agent/Chancellors/Notting-Hill-41328.html,W8,,1.0,2023-06-26 06:17:25.260747,Flat,1.0,1.0,48.0,"Campden Hill Gardens, Notting Hill",51.5074681,-0.1997281
977,2300000.0,2 bedroom flat for sale,"Palace Place Mansions, 
36 Kensington Court, W8",http://www.rightmove.co.uk/properties/135100799#/?channel=RES_BUY,http://www.rightmove.co.uk/estate-agents/agent/Chestertons-Estate-Agents/Kensington-High-Street-31605.html,W8,,2.0,2023-06-26 06:17:25.260747,Flat,2.0,2.0,167.0,"Palace Place Mansions, 
36 Kensington Court",51.5017979,-0.18898654999999998
982,2300000.0,2 bedroom apartment for sale,"Lennox Gardens, Knightsbridge, SW1X",http://www.rightmove.co.uk/properties/134346626#/?channel=RES_BUY,http://www.rightmove.co.uk/estate-agents/agent/Maskells-Estate-Agents-Ltd/London-96406.html,SW1X,,2.0,2023-06-26 06:17:25.260747,Apartment,2.0,1.0,120.0,"Lennox Gardens, Knightsbridge",,
984,2300000.0,3 bedroom detached house for sale,"Gunter Grove, London, SW10 0UJ",http://www.rightmove.co.uk/properties/133825793#/?channel=RES_BUY,http://www.rightmove.co.uk/estate-agents/agent/North-Residential/Harrogate-251432.html,SW10,SW10 0UJ,3.0,2023-06-26 06:17:25.260747,Detached,3.0,2.0,115.0,"Gunter Grove, London",51.482462,-0.1845659
985,2300000.0,2 bedroom apartment for sale,"Bassett Road, London",http://www.rightmove.co.uk/properties/128394374#/?channel=RES_BUY,http://www.rightmove.co.uk/estate-agents/agent/Rigby-And-Marchant/North-Kensington-230237.html,,,2.0,2023-06-26 06:17:25.260747,Apartment,2.0,2.0,141.0,"Bassett Road, London",51.5184176,-0.2162893
991,2295000.0,2 bedroom flat for sale,"Redcliffe Square, 
The Boltons, SW10",http://www.rightmove.co.uk/properties/130806695#/?channel=RES_BUY,http://www.rightmove.co.uk/estate-agents/agent/Chestertons-Estate-Agents/South-Kensington-51955.html,SW10,,2.0,2023-06-26 06:17:25.260747,Flat,2.0,2.0,99.0,"Redcliffe Square, 
The Boltons",51.4876957,-0.1886722
999,2250000.0,3 bedroom house for sale,"Highlever Road, London",http://www.rightmove.co.uk/properties/132996791#/?channel=RES_BUY,http://www.rightmove.co.uk/estate-agents/agent/Rigby-And-Marchant/North-Kensington-230237.html,,,3.0,2023-06-26 06:17:25.260747,House,3.0,1.0,137.0,"Highlever Road, London",51.5201117,-0.2242863
1000,800000.0,2 bedroom flat for sale,"Holland Road, W14, W14",http://www.rightmove.co.uk/properties/136062107#/?channel=RES_BUY,http://www.rightmove.co.uk/estate-agents/agent/Chancellors/Notting-Hill-41328.html,W14,,2.0,2023-06-26 06:17:25.260747,Flat,2.0,2.0,87.0,"Holland Road, W14",51.5000069,-0.2103336
1002,2250000.0,3 bedroom flat for sale,Holland Park W11,http://www.rightmove.co.uk/properties/133972157#/?channel=RES_BUY,http://www.rightmove.co.uk/estate-agents/agent/Anthony-Sharp/London-45393.html,W11,,3.0,2023-06-26 06:17:25.260747,Flat,3.0,2.0,139.0,Holland Park W11,51.5052487,-0.2083923
1009,2250000.0,2 bedroom flat for sale,"Culford Gardens, London, SW3",http://www.rightmove.co.uk/properties/133764113#/?channel=RES_BUY,http://www.rightmove.co.uk/estate-agents/agent/Black-Brick/Mayfair-75990.html,SW3,,2.0,2023-06-26 06:17:25.260747,Flat,2.0,2.0,80.0,"Culford Gardens, London",51.4917175,-0.1611339
1011,2250000.0,1 bedroom apartment for sale,"Egerton Gardens, Knightsbridge, SW3",http://www.rightmove.co.uk/properties/136006910#/?channel=RES_BUY,http://www.rightmove.co.uk/estate-agents/agent/Maskells-Estate-Agents-Ltd/London-96406.html,SW3,,1.0,2023-06-26 06:17:25.260747,Apartment,1.0,1.0,75.0,"Egerton Gardens, Knightsbridge",,
1012,2250000.0,3 bedroom mews house for sale,"Phillimore Walk, London, Kensington & Chelsea, W8",http://www.rightmove.co.uk/properties/134506784#/?channel=RES_BUY,http://www.rightmove.co.uk/estate-agents/agent/Sandersons/Holland-Park-and-Notting-Hill-86681.html,W8,,3.0,2023-06-26 06:17:25.260747,Mews,3.0,3.0,132.0,"Phillimore Walk, London",51.5008164,-0.1952465
1022,2250000.0,3 bedroom flat for sale,"Holland Park, London, W11",http://www.rightmove.co.uk/properties/135518819#/?channel=RES_BUY,http://www.rightmove.co.uk/estate-agents/agent/Mountgrange-Heritage/Notting-Hill-32235.html,W11,,3.0,2023-06-26 06:17:25.260747,Flat,3.0,3.0,146.0,"Holland Park, London",51.5030158,-0.20411700053696852
1023,2250000.0,2 bedroom apartment for sale,"Sandalwood Mansions, Kensington Green, W8",http://www.rightmove.co.uk/properties/134391506#/?channel=RES_BUY,http://www.rightmove.co.uk/estate-agents/agent/Jo-Webster-Properties-Ltd/London-139826.html,W8,,2.0,2023-06-26 06:17:25.260747,Apartment,2.0,2.0,94.0,"Sandalwood Mansions, Kensington Green",51.4974293,-0.19204568865878996
1025,10250000.0,6 bedroom terraced house for sale,"Oakley Street, Chelsea, London, SW3",http://www.rightmove.co.uk/properties/113802509#/?channel=RES_BUY,http://www.rightmove.co.uk/estate-agents/agent/Tedworth-Property-Limited/London-182369.html,SW3,,6.0,2023-06-26 06:17:25.260747,Terraced,6.0,3.0,404.0,"Oakley Street, Chelsea",51.4834923,-0.1673313
1028,2200000.0,2 bedroom maisonette for sale,"Sloane Gardens, Sloane Square, London, SW1W",http://www.rightmove.co.uk/properties/86351377#/?channel=RES_BUY,http://www.rightmove.co.uk/estate-agents/agent/Foxtons/Sloane-Square-16023.html,SW1W,,2.0,2023-06-26 06:17:25.260747,Maisonette,2.0,2.0,108.0,"Sloane Gardens, Sloane Square",,
1029,2200000.0,2 bedroom apartment for sale,"Bolton Gardens, South Kensington, London, SW5",http://www.rightmove.co.uk/properties/134063369#/?channel=RES_BUY,http://www.rightmove.co.uk/estate-agents/agent/HLR-Residential/London-121231.html,SW5,,2.0,2023-06-26 06:17:25.260747,Apartment,2.0,2.0,128.0,"Bolton Gardens, South Kensington",51.4909098,-0.1879597
1033,2200000.0,3 bedroom flat for sale,"Old Brompton Road, South Kensington, London, SW5",http://www.rightmove.co.uk/properties/121806890#/?channel=RES_BUY,http://www.rightmove.co.uk/estate-agents/agent/Foxtons/Earls-Court-108515.html,SW5,,3.0,2023-06-26 06:17:25.260747,Flat,3.0,3.0,150.0,"Old Brompton Road, South Kensington",51.4937029,-0.1745434
1034,2200000.0,3 bedroom maisonette for sale,"Cornwall Gardens, South Kensington, London, SW7",http://www.rightmove.co.uk/properties/78924786#/?channel=RES_BUY,http://www.rightmove.co.uk/estate-agents/agent/Foxtons/South-Kensington-15942.html,SW7,,3.0,2023-06-26 06:17:25.260747,Maisonette,3.0,3.0,167.0,"Cornwall Gardens, South Kensington",51.4968954,-0.1850318
1043,2200000.0,2 bedroom terraced house for sale,"Manson Mews, South Kensington, London, SW7",http://www.rightmove.co.uk/properties/135224156#/?channel=RES_BUY,http://www.rightmove.co.uk/estate-agents/agent/McMahon-and-Partners/London-65019.html,SW7,,2.0,2023-06-26 06:17:25.260747,Terraced,2.0,2.0,113.0,"Manson Mews, South Kensington",51.4929871,-0.1792155
1044,2200000.0,4 bedroom terraced house for sale,"Redfield Lane, 
Earls Court, SW5",http://www.rightmove.co.uk/properties/131595701#/?channel=RES_BUY,http://www.rightmove.co.uk/estate-agents/agent/Chestertons-Estate-Agents/South-Kensington-51955.html,SW5,,4.0,2023-06-26 06:17:25.260747,Terraced,4.0,4.0,157.0,"Redfield Lane, 
Earls Court",,
1045,2195000.0,3 bedroom apartment for sale,"Oakwood Court, Holland Park, W14",http://www.rightmove.co.uk/properties/135577373#/?channel=RES_BUY,http://www.rightmove.co.uk/estate-agents/agent/Sandersons/Holland-Park-and-Notting-Hill-86681.html,W14,,3.0,2023-06-26 06:17:25.260747,Apartment,3.0,2.0,141.0,"Oakwood Court, Holland Park",,
1047,2150000.0,3 bedroom flat for sale,"First Floor Flat, Addison Road, Holland Park",http://www.rightmove.co.uk/properties/134859737#/?channel=RES_BUY,http://www.rightmove.co.uk/estate-agents/agent/Anthony-Sharp/London-45393.html,,,3.0,2023-06-26 06:17:25.260747,Flat,3.0,2.0,132.0,"First Floor Flat, Addison Road",,
