Unnamed: 0,price,type,address,url,agent_url,postcode,full_postcode,number_bedrooms,search_date,property_type,bedrooms,bathrooms,size_square_meters,new_address,latitude,longitude
0,3500000,6 bedroom detached house for sale,"Dartmouth Road, Mapesbury Estate, London, NW2",http://www.rightmove.co.uk/properties/86209227#/?channel=RES_BUY,http://www.rightmove.co.uk/estate-agents/agent/Foxtons/Willesden-Green-71401.html,NW2,,6.0,2023-06-26 08:18:21.397827,Detached,6.0,3.0,271.0,"Dartmouth Road, Mapesbury Estate",,
4,5000000,6 bedroom detached house for sale,"Manor House Drive, London, NW6",http://www.rightmove.co.uk/properties/127205693#/?channel=RES_BUY,http://www.rightmove.co.uk/estate-agents/agent/Camerons-Stiff-and-Co/Willesden-Green-London-Sales-13658.html,NW6,,6.0,2023-06-26 08:18:21.397827,Detached,6.0,6.0,479.0,"Manor House Drive, London",51.5424426,-0.2158384
7,4750000,6 bedroom house for sale,"Brondesbury Park, London, NW6",http://www.rightmove.co.uk/properties/129973184#/?channel=RES_BUY,http://www.rightmove.co.uk/estate-agents/agent/Camerons-Stiff-and-Co/Willesden-Green-London-Sales-13658.html,NW6,,6.0,2023-06-26 08:18:21.397827,House,6.0,6.0,436.0,"Brondesbury Park, London",51.5405138,-0.2103359
10,4500000,5 bedroom house for sale,"Kingswood Avenue, London, NW6",http://www.rightmove.co.uk/properties/131851694#/?channel=RES_BUY,http://www.rightmove.co.uk/estate-agents/agent/Camerons-Stiff-and-Co/Queens-Park-238043.html,NW6,,5.0,2023-06-26 08:18:21.397827,House,5.0,2.0,260.0,"Kingswood Avenue, London",51.3914378,-0.112818
13,3950000,5 bedroom house for sale,"Manor House Drive, NW6",http://www.rightmove.co.uk/properties/133917848#/?channel=RES_BUY,http://www.rightmove.co.uk/estate-agents/agent/Camerons-Stiff-and-Co/Willesden-Green-London-Sales-13658.html,NW6,,5.0,2023-06-26 08:18:21.397827,House,5.0,4.0,412.0,"Manor House Drive, NW6",,
16,3750000,5 bedroom penthouse for sale,"Wotton Road, London, NW2",http://www.rightmove.co.uk/properties/133298054#/?channel=RES_BUY,http://www.rightmove.co.uk/estate-agents/agent/DDREglobal/London-79209.html,NW2,,5.0,2023-06-26 08:18:21.397827,Penthouse,5.0,5.0,531.0,"Wotton Road, London",51.5598682,-0.2245401
17,3750000,5 bedroom house for sale,"Harvist Road, London, NW6",http://www.rightmove.co.uk/properties/134759270#/?channel=RES_BUY,http://www.rightmove.co.uk/estate-agents/agent/Camerons-Stiff-and-Co/Willesden-Green-London-Sales-13658.html,NW6,,5.0,2023-06-26 08:18:21.397827,House,5.0,4.0,280.0,"Harvist Road, London",51.5335,-0.2110071
18,3650000,6 bedroom house for sale,"Manor House Drive, Brondesbury Park, NW6",http://www.rightmove.co.uk/properties/86105037#/?channel=RES_BUY,http://www.rightmove.co.uk/estate-agents/agent/Camerons-Stiff-and-Co/Willesden-Green-London-Sales-13658.html,NW6,,6.0,2023-06-26 08:18:21.397827,House,6.0,4.0,322.0,"Manor House Drive, Brondesbury Park",51.5424426,-0.2158384
19,3500000,6 bedroom detached house for sale,"Dartmouth Road, Mapesbury Estate, London, NW2",http://www.rightmove.co.uk/properties/86209227#/?channel=RES_BUY,http://www.rightmove.co.uk/estate-agents/agent/Foxtons/Willesden-Green-71401.html,NW2,,6.0,2023-06-26 08:18:21.397827,Detached,6.0,3.0,271.0,"Dartmouth Road, Mapesbury Estate",,
22,3500000,5 bedroom semi-detached house for sale,"Brondesbury Park, London",http://www.rightmove.co.uk/properties/127528766#/?channel=RES_BUY,http://www.rightmove.co.uk/estate-agents/agent/Rigby-And-Marchant/North-Kensington-230237.html,,,5.0,2023-06-26 08:18:21.397827,Semi-Detached,5.0,3.0,462.0,"Brondesbury Park, London",51.5405138,-0.2103359
23,3450000,9 bedroom house for sale,"Alexander Avenue, Willesden Green, NW10",http://www.rightmove.co.uk/properties/134548703#/?channel=RES_BUY,http://www.rightmove.co.uk/estate-agents/agent/Liv-International/London-54583.html,NW10,,9.0,2023-06-26 08:18:21.397827,House,9.0,6.0,608.0,"Alexander Avenue, Willesden Green",51.5421302,-0.2297282
26,3250000,5 bedroom house for sale,"Harvist Road, Queens Park",http://www.rightmove.co.uk/properties/134491307#/?channel=RES_BUY,http://www.rightmove.co.uk/estate-agents/agent/Parkheath/Kensal-Rise-151640.html,,,5.0,2023-06-26 08:18:21.397827,House,5.0,5.0,283.0,"Harvist Road, Queens Park",51.5333046,-0.2099468
27,3250000,6 bedroom detached house for sale,"Milverton Road, London, NW6",http://www.rightmove.co.uk/properties/127254203#/?channel=RES_BUY,http://www.rightmove.co.uk/estate-agents/agent/Camerons-Stiff-and-Co/Willesden-Green-London-Sales-13658.html,NW6,,6.0,2023-06-26 08:18:21.397827,Detached,6.0,4.0,320.0,"Milverton Road, London",51.543395,-0.2207447
29,3150000,7 bedroom detached house for sale,"Coverdale Road, London NW2",http://www.rightmove.co.uk/properties/136444205#/?channel=RES_BUY,http://www.rightmove.co.uk/estate-agents/agent/Camerons-Stiff-and-Co/Willesden-Green-London-Sales-13658.html,NW2,,7.0,2023-06-26 08:18:21.397827,Detached,7.0,2.0,360.0,"Coverdale Road, London NW2",,
30,3000000,12 bedroom detached house for sale,"Dartmouth Road, London, NW2",http://www.rightmove.co.uk/properties/135439007#/?channel=RES_BUY,http://www.rightmove.co.uk/estate-agents/agent/Huttons-and-Partners/London-257087.html,NW2,,12.0,2023-06-26 08:18:21.397827,Detached,12.0,6.0,489.0,"Dartmouth Road, London",51.4390158,-0.0539784
33,3000000,7 bedroom house for sale,"Sidmouth Road, Willesden, London, NW2",http://www.rightmove.co.uk/properties/128593691#/?channel=RES_BUY,http://www.rightmove.co.uk/estate-agents/agent/Foxtons/Willesden-Green-71401.html,NW2,,7.0,2023-06-26 08:18:21.397827,House,7.0,4.0,360.0,"Sidmouth Road, Willesden",51.542864,-0.2252552
34,3000000,6 bedroom detached house for sale,"Alexander Avenue, Willesden Green, London, NW10",http://www.rightmove.co.uk/properties/125777678#/?channel=RES_BUY,http://www.rightmove.co.uk/estate-agents/agent/Foxtons/Willesden-Green-71401.html,NW10,,6.0,2023-06-26 08:18:21.397827,Detached,6.0,4.0,372.0,"Alexander Avenue, Willesden Green",51.5421302,-0.2297282
35,2999950,7 bedroom semi-detached house for sale,"The Avenue, Brondesbury Park NW6",http://www.rightmove.co.uk/properties/132435002#/?channel=RES_BUY,http://www.rightmove.co.uk/estate-agents/agent/Camerons-Stiff-and-Co/Willesden-Green-London-Sales-13658.html,NW6,,7.0,2023-06-26 08:18:21.397827,Semi-Detached,7.0,4.0,336.0,"The Avenue, Brondesbury Park NW6",51.5401536,-0.2125369
36,2850000,5 bedroom terraced house for sale,"Crediton Road, London NW10",http://www.rightmove.co.uk/properties/134920316#/?channel=RES_BUY,http://www.rightmove.co.uk/estate-agents/agent/The-Modern-House/London-65243.html,NW10,,5.0,2023-06-26 08:18:21.397827,Terraced,5.0,3.0,247.0,"Crediton Road, London NW10",,
37,2850000,4 bedroom house for sale,"Montrose Avenue, London, NW6",http://www.rightmove.co.uk/properties/134323838#/?channel=RES_BUY,http://www.rightmove.co.uk/estate-agents/agent/Camerons-Stiff-and-Co/Queens-Park-238043.html,NW6,,4.0,2023-06-26 08:18:21.397827,House,4.0,3.0,218.0,"Montrose Avenue, London",51.5987262,-0.2611732
38,2695000,5 bedroom terraced house for sale,"Okehampton Road, Queens Park, London, NW10",http://www.rightmove.co.uk/properties/85948407#/?channel=RES_BUY,http://www.rightmove.co.uk/estate-agents/agent/Simon-Deen-Real-Estate/London-252320.html,NW10,,5.0,2023-06-26 08:18:21.397827,Terraced,5.0,3.0,226.0,"Okehampton Road, Queens Park",,
39,2600000,5 bedroom house for sale,"Creighton Road, London, NW6",http://www.rightmove.co.uk/properties/135153782#/?channel=RES_BUY,http://www.rightmove.co.uk/estate-agents/agent/Camerons-Stiff-and-Co/Queens-Park-238043.html,NW6,,5.0,2023-06-26 08:18:21.397827,House,5.0,3.0,212.0,"Creighton Road, London",51.6051575,-0.0736967
42,2500000,6 bedroom semi-detached house for sale,"Wrentham Avenue, NW10",http://www.rightmove.co.uk/properties/135595055#/?channel=RES_BUY,http://www.rightmove.co.uk/estate-agents/agent/Loporto-Browne-Residential/London-260705.html,NW10,,6.0,2023-06-26 08:18:21.397827,Semi-Detached,6.0,3.0,199.0,"Wrentham Avenue, NW10",,
47,2375000,6 bedroom detached house for sale,"Littleton Crescent, Harrow, HA1",http://www.rightmove.co.uk/properties/127683920#/?channel=RES_BUY,http://www.rightmove.co.uk/estate-agents/agent/Camerons-Stiff-and-Co/Queens-Park-238043.html,HA1,,6.0,2023-06-26 08:18:21.397827,Detached,6.0,4.0,337.0,"Littleton Crescent, Harrow",,
48,2350000,4 bedroom terraced house for sale,"Brooksville Avenue, London, NW6",http://www.rightmove.co.uk/properties/132466424#/?channel=RES_BUY,http://www.rightmove.co.uk/estate-agents/agent/Knight-Frank/Queens-Park-138212.html,NW6,,4.0,2023-06-26 08:18:21.397827,Terraced,4.0,2.0,165.0,"Brooksville Avenue, London",51.5378907,-0.2086484
55,2250000,6 bedroom house for sale,"Blenheim Gardens, London, NW2",http://www.rightmove.co.uk/properties/135568598#/?channel=RES_BUY,http://www.rightmove.co.uk/estate-agents/agent/Camerons-Stiff-and-Co/Willesden-Green-London-Sales-13658.html,NW2,,6.0,2023-06-26 08:18:21.397827,House,6.0,2.0,271.0,"Blenheim Gardens, London",51.5520148,-0.221032
57,2125000,4 bedroom house for sale,"Wrentham Avenue, NW10",http://www.rightmove.co.uk/properties/126195038#/?channel=RES_BUY,http://www.rightmove.co.uk/estate-agents/agent/Camerons-Stiff-and-Co/Willesden-Green-London-Sales-13658.html,NW10,,4.0,2023-06-26 08:18:21.397827,House,4.0,1.0,177.0,"Wrentham Avenue, NW10",,
61,2000000,10 bedroom house for sale,"Donnington Road, Kensal Green, London, NW10",http://www.rightmove.co.uk/properties/135229526#/?channel=RES_BUY,http://www.rightmove.co.uk/estate-agents/agent/Camerons-Stiff-and-Co/Willesden-Green-London-Sales-13658.html,NW10,,10.0,2023-06-26 08:18:21.397827,House,10.0,10.0,262.0,"Donnington Road, Kensal Green",,
64,1999950,4 bedroom detached house for sale,"Dobree Avenue, London, NW10",http://www.rightmove.co.uk/properties/127941914#/?channel=RES_BUY,http://www.rightmove.co.uk/estate-agents/agent/Dexters/Kensal-Rise-and-Queens-Park-50343.html,NW10,,4.0,2023-06-26 08:18:21.397827,Detached,4.0,3.0,226.0,"Dobree Avenue, London",51.5429204,-0.2293119
65,1999950,4 bedroom house for sale,"Honiton Road, London, NW6",http://www.rightmove.co.uk/properties/135818471#/?channel=RES_BUY,http://www.rightmove.co.uk/estate-agents/agent/Foxtons/Wembley-166331.html,NW6,,4.0,2023-06-26 08:18:21.397827,House,4.0,2.0,148.0,"Honiton Road, London",51.5741789,0.175196
66,1995000,5 bedroom house for sale,"Dyne Road, London, NW6",http://www.rightmove.co.uk/properties/135521600#/?channel=RES_BUY,http://www.rightmove.co.uk/estate-agents/agent/Winkworth/Kingsbury-Sales-65598.html,NW6,,5.0,2023-06-26 08:18:21.397827,House,5.0,4.0,203.0,"Dyne Road, London",51.5436315,-0.204064
68,1950000,6 bedroom house for sale,"Oakington Avenue, Wembley Park, Wembley, HA9",http://www.rightmove.co.uk/properties/123719747#/?channel=RES_BUY,http://www.rightmove.co.uk/estate-agents/agent/Foxtons/Willesden-Green-71401.html,HA9,,6.0,2023-06-26 08:18:21.397827,House,6.0,5.0,333.0,"Oakington Avenue, Wembley Park",,
70,1950000,6 bedroom house for sale,"Brondesbury Park, London, NW2",http://www.rightmove.co.uk/properties/135238637#/?channel=RES_BUY,http://www.rightmove.co.uk/estate-agents/agent/Camerons-Stiff-and-Co/Willesden-Green-London-Sales-13658.html,NW2,,6.0,2023-06-26 08:18:21.397827,House,6.0,3.0,346.0,"Brondesbury Park, London",51.5405138,-0.2103359
71,1925000,6 bedroom semi-detached house for sale,"Heathfield Park, Willesden Green, London, NW2",http://www.rightmove.co.uk/properties/135737879#/?channel=RES_BUY,http://www.rightmove.co.uk/estate-agents/agent/Marsh-and-Parsons/Queens-Park-140183.html,NW2,,6.0,2023-06-26 08:18:21.397827,Semi-Detached,6.0,3.0,280.0,"Heathfield Park, Willesden Green",51.5470552,-0.2243121
73,1899950,5 bedroom house for sale,"Henson Avenue, London, NW2",http://www.rightmove.co.uk/properties/132597575#/?channel=RES_BUY,,NW2,,5.0,2023-06-26 08:18:21.397827,House,5.0,3.0,279.0,"Henson Avenue, London",51.5541802,-0.2258898
77,1875000,4 bedroom semi-detached house for sale,"Hardinge Road, NW10",http://www.rightmove.co.uk/properties/126564746#/?channel=RES_BUY,http://www.rightmove.co.uk/estate-agents/agent/Camerons-Stiff-and-Co/Willesden-Green-London-Sales-13658.html,NW10,,4.0,2023-06-26 08:18:21.397827,Semi-Detached,4.0,2.0,149.0,"Hardinge Road, NW10",,
78,1850000,4 bedroom house for sale,"Streatley Road, London, NW6",http://www.rightmove.co.uk/properties/136145138#/?channel=RES_BUY,http://www.rightmove.co.uk/estate-agents/agent/Camerons-Stiff-and-Co/Willesden-Green-London-Sales-13658.html,NW6,,4.0,2023-06-26 08:18:21.397827,House,4.0,3.0,203.0,"Streatley Road, London",51.5421268,-0.2014616
83,1800000,5 bedroom house for sale,"Lushington Road, London",http://www.rightmove.co.uk/properties/136286912#/?channel=RES_BUY,http://www.rightmove.co.uk/estate-agents/agent/Rigby-And-Marchant/North-Kensington-230237.html,,,5.0,2023-06-26 08:18:21.397827,House,5.0,3.0,266.0,"Lushington Road, London",51.5348564,-0.2339491
85,1799950,4 bedroom semi-detached house for sale,"Chelmsford Square, London, NW10",http://www.rightmove.co.uk/properties/133888343#/?channel=RES_BUY,http://www.rightmove.co.uk/estate-agents/agent/Camerons-Stiff-and-Co/Willesden-Green-London-Sales-13658.html,NW10,,4.0,2023-06-26 08:18:21.397827,Semi-Detached,4.0,2.0,201.0,"Chelmsford Square, London",51.5387928,-0.2257605
86,1799950,5 bedroom detached house for sale,"Alexander Avenue, Willesden, NW10",http://www.rightmove.co.uk/properties/133893452#/?channel=RES_BUY,http://www.rightmove.co.uk/estate-agents/agent/Camerons-Stiff-and-Co/Willesden-Green-London-Sales-13658.html,NW10,,5.0,2023-06-26 08:18:21.397827,Detached,5.0,2.0,290.0,"Alexander Avenue, Willesden",51.5421302,-0.2297282
87,1799950,4 bedroom end of terrace house for sale,"Harvist Road, London, NW6",http://www.rightmove.co.uk/properties/136143437#/?channel=RES_BUY,http://www.rightmove.co.uk/estate-agents/agent/Camerons-Stiff-and-Co/Willesden-Green-London-Sales-13658.html,NW6,,4.0,2023-06-26 08:18:21.397827,End of Terrace,4.0,2.0,162.0,"Harvist Road, London",51.5335,-0.2110071
88,1750000,5 bedroom house for sale,"Spezia Road, London",http://www.rightmove.co.uk/properties/136252151#/?channel=RES_BUY,http://www.rightmove.co.uk/estate-agents/agent/Parkheath/Kensal-Rise-151640.html,,,5.0,2023-06-26 08:18:21.397827,House,5.0,3.0,206.0,"Spezia Road, London",51.53483,-0.2390533
89,1750000,5 bedroom end of terrace house for sale,"Spezia Road, Kensal Green, London, NW10",http://www.rightmove.co.uk/properties/135304457#/?channel=RES_BUY,http://www.rightmove.co.uk/estate-agents/agent/Foxtons/Willesden-Green-71401.html,NW10,,5.0,2023-06-26 08:18:21.397827,End of Terrace,5.0,3.0,206.0,"Spezia Road, Kensal Green",,
95,1700000,3 bedroom house for sale,"Tennyson Road, London",http://www.rightmove.co.uk/properties/136398740#/?channel=RES_BUY,http://www.rightmove.co.uk/estate-agents/agent/Camerons-Stiff-and-Co/Queens-Park-238043.html,,,3.0,2023-06-26 08:18:21.397827,House,3.0,2.0,141.0,"Tennyson Road, London",51.5647432,-0.0125421
104,1695000,4 bedroom flat for sale,"Brondesbury Villas, Queens Park, NW6",http://www.rightmove.co.uk/properties/86146377#/?channel=RES_BUY,http://www.rightmove.co.uk/estate-agents/agent/Camerons-Stiff-and-Co/Queens-Park-238043.html,NW6,,4.0,2023-06-26 08:18:21.397827,Flat,4.0,3.0,185.0,"Brondesbury Villas, Queens Park",,
107,1650000,4 bedroom semi-detached house for sale,"Melrose Avenue, NW2",http://www.rightmove.co.uk/properties/86222472#/?channel=RES_BUY,http://www.rightmove.co.uk/estate-agents/agent/Camerons-Stiff-and-Co/Willesden-Green-London-Sales-13658.html,NW2,,4.0,2023-06-26 08:18:21.397827,Semi-Detached,4.0,2.0,181.0,"Melrose Avenue, NW2",51.5533285,-0.2276922
113,1600000,4 bedroom detached house for sale,"The Mount, Wembley Park, Wembley, HA9",http://www.rightmove.co.uk/properties/134034275#/?channel=RES_BUY,http://www.rightmove.co.uk/estate-agents/agent/Foxtons/Wembley-166331.html,HA9,,4.0,2023-06-26 08:18:21.397827,Detached,4.0,3.0,175.0,"The Mount, Wembley Park",,
114,1600000,5 bedroom semi-detached house for sale,"Haycroft Gardens, London, NW10",http://www.rightmove.co.uk/properties/133890902#/?channel=RES_BUY,http://www.rightmove.co.uk/estate-agents/agent/Camerons-Stiff-and-Co/Willesden-Green-London-Sales-13658.html,NW10,,5.0,2023-06-26 08:18:21.397827,Semi-Detached,5.0,3.0,199.0,"Haycroft Gardens, London",51.5380811,-0.2356856
115,1600000,2 bedroom apartment for sale,"Wotton Road, Cricklewood, London",http://www.rightmove.co.uk/properties/135815687#/?channel=RES_BUY,http://www.rightmove.co.uk/estate-agents/agent/Wayne-and-Silver/Hampstead-91636.html,,,2.0,2023-06-26 08:18:21.397827,Apartment,2.0,2.0,388.0,"Wotton Road, Cricklewood",51.5598682,-0.2245401
116,1600000,4 bedroom terraced house for sale,"College Road, London NW10",http://www.rightmove.co.uk/properties/136126391#/?channel=RES_BUY,http://www.rightmove.co.uk/estate-agents/agent/The-Modern-House/London-65243.html,NW10,,4.0,2023-06-26 08:18:21.397827,Terraced,4.0,2.0,161.0,"College Road, London NW10",51.5322727,-0.2255505
118,1599950,5 bedroom detached house for sale,"Alexander Avenue, NW10",http://www.rightmove.co.uk/properties/127844627#/?channel=RES_BUY,http://www.rightmove.co.uk/estate-agents/agent/Camerons-Stiff-and-Co/Willesden-Green-London-Sales-13658.html,NW10,,5.0,2023-06-26 08:18:21.397827,Detached,5.0,2.0,182.0,"Alexander Avenue, NW10",,
121,1595000,6 bedroom semi-detached house for sale,"Compton Road, London NW10",http://www.rightmove.co.uk/properties/129135443#/?channel=RES_BUY,http://www.rightmove.co.uk/estate-agents/agent/Parkheath/Kensal-Rise-151640.html,NW10,,6.0,2023-06-26 08:18:21.397827,Semi-Detached,6.0,3.0,199.0,"Compton Road, London NW10",,
123,1550000,5 bedroom house for sale,"Kingsley Road, London, NW6",http://www.rightmove.co.uk/properties/135694661#/?channel=RES_BUY,http://www.rightmove.co.uk/estate-agents/agent/Camerons-Stiff-and-Co/Queens-Park-238043.html,NW6,,5.0,2023-06-26 08:18:21.397827,House,5.0,2.0,154.0,"Kingsley Road, London",51.4706429,-0.3550571
129,1500000,6 bedroom terraced house for sale,"Preston Road, Wembley, HA9",http://www.rightmove.co.uk/properties/136283849#/?channel=RES_BUY,http://www.rightmove.co.uk/estate-agents/agent/Foxtons/Wembley-166331.html,HA9,,6.0,2023-06-26 08:18:21.397827,Terraced,6.0,3.0,287.0,"Preston Road, Wembley",51.5722732,-0.2958081
130,1500000,5 bedroom semi-detached house for sale,"Chambers Lane, London, NW10",http://www.rightmove.co.uk/properties/86179923#/?channel=RES_BUY,http://www.rightmove.co.uk/estate-agents/agent/Camerons-Stiff-and-Co/Willesden-Green-London-Sales-13658.html,NW10,,5.0,2023-06-26 08:18:21.397827,Semi-Detached,5.0,2.0,215.0,"Chambers Lane, London",51.5456025,-0.2302998
132,1499950,4 bedroom house for sale,"St Hilda's Close, London, NW6",http://www.rightmove.co.uk/properties/112452197#/?channel=RES_BUY,http://www.rightmove.co.uk/estate-agents/agent/Camerons-Stiff-and-Co/Queens-Park-238043.html,NW6,,4.0,2023-06-26 08:18:21.397827,House,4.0,2.0,197.0,"St Hilda's Close, London",51.5407986,-0.2151774
134,1450000,3 bedroom terraced house for sale,"Mortimer Road, London NW10",http://www.rightmove.co.uk/properties/133780412#/?channel=RES_BUY,http://www.rightmove.co.uk/estate-agents/agent/Camerons-Stiff-and-Co/Queens-Park-238043.html,NW10,,3.0,2023-06-26 08:18:21.397827,Terraced,3.0,1.0,146.0,"Mortimer Road, London NW10",,
135,1450000,3 bedroom semi-detached house for sale,"Hardinge Road, London NW10",http://www.rightmove.co.uk/properties/132333575#/?channel=RES_BUY,http://www.rightmove.co.uk/estate-agents/agent/Parkheath/Kensal-Rise-151640.html,NW10,,3.0,2023-06-26 08:18:21.397827,Semi-Detached,3.0,1.0,131.0,"Hardinge Road, London NW10",,
138,1449950,4 bedroom house for sale,"Kenilworth Road, London, NW6",http://www.rightmove.co.uk/properties/135844664#/?channel=RES_BUY,http://www.rightmove.co.uk/estate-agents/agent/Camerons-Stiff-and-Co/Willesden-Green-London-Sales-13658.html,NW6,,4.0,2023-06-26 08:18:21.397827,House,4.0,1.0,143.0,"Kenilworth Road, London",51.627634,-0.2670838
142,1399950,4 bedroom terraced house for sale,"St Hildas Close, Brondesbury Park, NW6",http://www.rightmove.co.uk/properties/114107009#/?channel=RES_BUY,http://www.rightmove.co.uk/estate-agents/agent/Camerons-Stiff-and-Co/Willesden-Green-London-Sales-13658.html,NW6,,4.0,2023-06-26 08:18:21.397827,Terraced,4.0,2.0,160.0,"St Hildas Close, Brondesbury Park",,
146,1395000,3 bedroom terraced house for sale,"Harvist Road, Queens Park, London",http://www.rightmove.co.uk/properties/135271331#/?channel=RES_BUY,http://www.rightmove.co.uk/estate-agents/agent/Warwick-Estate-Agents/London-2979.html,,,3.0,2023-06-26 08:18:21.397827,Terraced,3.0,3.0,174.0,"Harvist Road, Queens Park",51.5333046,-0.2099468
147,1350000,4 bedroom terraced house for sale,"James Avenue, Willesden, NW2",http://www.rightmove.co.uk/properties/128343647#/?channel=RES_BUY,http://www.rightmove.co.uk/estate-agents/agent/Camerons-Stiff-and-Co/Willesden-Green-London-Sales-13658.html,NW2,,4.0,2023-06-26 08:18:21.397827,Terraced,4.0,2.0,167.0,"James Avenue, Willesden",51.5534668,-0.2234917
150,450000,2 bedroom flat for sale,"Inman Road, Harlesden, London",http://www.rightmove.co.uk/properties/130906499#/?channel=RES_BUY,http://www.rightmove.co.uk/estate-agents/agent/Warwick-Estate-Agents/London-2979.html,,,2.0,2023-06-26 08:18:21.397827,Flat,2.0,1.0,69.0,"Inman Road, Harlesden",51.5417602,-0.2533787
154,1350000,5 bedroom house for sale,"Bathurst Gardens, London, NW10",http://www.rightmove.co.uk/properties/136145198#/?channel=RES_BUY,http://www.rightmove.co.uk/estate-agents/agent/Camerons-Stiff-and-Co/Willesden-Green-London-Sales-13658.html,NW10,,5.0,2023-06-26 08:18:21.397827,House,5.0,2.0,188.0,"Bathurst Gardens, London",51.5334345,-0.2335717
157,1350000,4 bedroom flat for sale,"Mapesbury Road, London, NW2",http://www.rightmove.co.uk/properties/135648161#/?channel=RES_BUY,http://www.rightmove.co.uk/estate-agents/agent/Camerons-Stiff-and-Co/Willesden-Green-London-Sales-13658.html,NW2,,4.0,2023-06-26 08:18:21.397827,Flat,4.0,2.0,135.0,"Mapesbury Road, London",51.5469864,-0.2105892
169,1300000,5 bedroom terraced house for sale,"Springwell Avenue, NW10, Harlesden, London, NW10",http://www.rightmove.co.uk/properties/130801811#/?channel=RES_BUY,http://www.rightmove.co.uk/estate-agents/agent/Foxtons/Willesden-Green-71401.html,NW10,,5.0,2023-06-26 08:18:21.397827,Terraced,5.0,4.0,210.0,"Springwell Avenue, NW10",,
171,1299950,4 bedroom house for sale,"Donnington Road, Kensal Rise, NW10",http://www.rightmove.co.uk/properties/132397034#/?channel=RES_BUY,http://www.rightmove.co.uk/estate-agents/agent/Camerons-Stiff-and-Co/Willesden-Green-London-Sales-13658.html,NW10,,4.0,2023-06-26 08:18:21.397827,House,4.0,2.0,173.0,"Donnington Road, Kensal Rise",,
173,1250000,3 bedroom flat for sale,"Harvist Road, London",http://www.rightmove.co.uk/properties/86166789#/?channel=RES_BUY,http://www.rightmove.co.uk/estate-agents/agent/Parkheath/Kensal-Rise-151640.html,,,3.0,2023-06-26 08:18:21.397827,Flat,3.0,3.0,126.0,"Harvist Road, London",51.5335,-0.2110071
177,1250000,4 bedroom terraced house for sale,"Acton Lane, London, NW10",http://www.rightmove.co.uk/properties/122817803#/?channel=RES_BUY,http://www.rightmove.co.uk/estate-agents/agent/The-Agency-Group/London-79431.html,NW10,,4.0,2023-06-26 08:18:21.397827,Terraced,4.0,2.0,197.0,"Acton Lane, London",51.5059778,-0.2679476
181,1250000,3 bedroom semi-detached house for sale,"Pember Road, London, NW10",http://www.rightmove.co.uk/properties/134499734#/?channel=RES_BUY,http://www.rightmove.co.uk/estate-agents/agent/Camerons-Stiff-and-Co/Queens-Park-238043.html,NW10,,3.0,2023-06-26 08:18:21.397827,Semi-Detached,3.0,2.0,130.0,"Pember Road, London",51.5295406,-0.2178727
184,1250000,3 bedroom flat for sale,"Empire Way, Wembley Park, Wembley, HA9",http://www.rightmove.co.uk/properties/136169807#/?channel=RES_BUY,http://www.rightmove.co.uk/estate-agents/agent/Foxtons/Wembley-166331.html,HA9,,3.0,2023-06-26 08:18:21.397827,Flat,3.0,2.0,118.0,"Empire Way, Wembley Park",51.5618406,-0.2832251
187,1200000,4 bedroom house for sale,"Victoria Mews, London, NW6",http://www.rightmove.co.uk/properties/136104611#/?channel=RES_BUY,http://www.rightmove.co.uk/estate-agents/agent/Camerons-Stiff-and-Co/Queens-Park-238043.html,NW6,,4.0,2023-06-26 08:18:21.397827,House,4.0,2.0,126.0,"Victoria Mews, London",51.5392647,-0.1975724
188,1200000,4 bedroom terraced house for sale,"Ellesmere Road, London, NW10",http://www.rightmove.co.uk/properties/122376731#/?channel=RES_BUY,http://www.rightmove.co.uk/estate-agents/agent/Camerons-Stiff-and-Co/Willesden-Green-London-Sales-13658.html,NW10,,4.0,2023-06-26 08:18:21.397827,Terraced,4.0,2.0,159.0,"Ellesmere Road, London",51.5264208,-0.3568873
189,1200000,3 bedroom maisonette for sale,"Dean Road, London NW2",http://www.rightmove.co.uk/properties/135756872#/?channel=RES_BUY,http://www.rightmove.co.uk/estate-agents/agent/Inigo/London-233495.html,NW2,,3.0,2023-06-26 08:18:21.397827,Maisonette,3.0,4.0,138.0,"Dean Road, London NW2",,
190,1200000,5 bedroom terraced house for sale,"Balmoral Road, London, NW2 5BT",http://www.rightmove.co.uk/properties/135397439#/?channel=RES_BUY,http://www.rightmove.co.uk/estate-agents/agent/eXp-UK/London-238265.html,NW2,NW2 5BT,5.0,2023-06-26 08:18:21.397827,Terraced,5.0,3.0,167.0,"Balmoral Road, London",51.5481476,0.0356594
197,1199999,4 bedroom detached house for sale,"Sudbury Court Drive, Harrow",http://www.rightmove.co.uk/properties/136052012#/?channel=RES_BUY,http://www.rightmove.co.uk/estate-agents/agent/Andrew-Pearce/Harrow-234602.html,,,4.0,2023-06-26 08:18:21.397827,Detached,4.0,2.0,182.0,"Sudbury Court Drive, Harrow",51.5616994,-0.3312663
202,1150000,4 bedroom house for sale,"Park Avenue North, NW10",http://www.rightmove.co.uk/properties/126073811#/?channel=RES_BUY,http://www.rightmove.co.uk/estate-agents/agent/Camerons-Stiff-and-Co/Willesden-Green-London-Sales-13658.html,NW10,,4.0,2023-06-26 08:18:21.397827,House,4.0,3.0,198.0,"Park Avenue North, NW10",51.5535709,-0.2299714
207,1150000,3 bedroom flat for sale,"Cambridge Avenue, Kilburn, London, NW6",http://www.rightmove.co.uk/properties/135187901#/?channel=RES_BUY,http://www.rightmove.co.uk/estate-agents/agent/Foxtons/Maida-Vale-151658.html,NW6,,3.0,2023-06-26 08:18:21.397827,Flat,3.0,2.0,129.0,"Cambridge Avenue, Kilburn",51.536354700000004,-0.19229698628158587
208,1150000,4 bedroom terraced house for sale,"Willesden Green, Willesden Green, London, NW2",http://www.rightmove.co.uk/properties/135871910#/?channel=RES_BUY,http://www.rightmove.co.uk/estate-agents/agent/Foxtons/Willesden-Green-71401.html,NW2,,4.0,2023-06-26 08:18:21.397827,Terraced,4.0,2.0,141.0,"Willesden Green, Willesden Green",51.5453674,-0.24025336472118206
211,1150000,4 bedroom semi-detached house for sale,"Sherrick Green Road, Willesden Green, London, NW10",http://www.rightmove.co.uk/properties/134256359#/?channel=RES_BUY,http://www.rightmove.co.uk/estate-agents/agent/Foxtons/Willesden-Green-71401.html,NW10,,4.0,2023-06-26 08:18:21.397827,Semi-Detached,4.0,3.0,170.0,"Sherrick Green Road, Willesden Green",,
218,1100000,5 bedroom detached house for sale,"Preston Hill, Preston, Harrow, HA3",http://www.rightmove.co.uk/properties/132526208#/?channel=RES_BUY,http://www.rightmove.co.uk/estate-agents/agent/Foxtons/Harrow-108947.html,HA3,,5.0,2023-06-26 08:18:21.397827,Detached,5.0,2.0,173.0,"Preston Hill, Preston",51.5820222,-0.2886087
219,1100000,5 bedroom semi-detached house for sale,"Gladstone Park Gardens, London",http://www.rightmove.co.uk/properties/129195629#/?channel=RES_BUY,http://www.rightmove.co.uk/estate-agents/agent/Portland-Estate-Agents/London-139901.html,,,5.0,2023-06-26 08:18:21.397827,Semi-Detached,5.0,4.0,176.0,"Gladstone Park Gardens, London",51.5618367,-0.2276813
235,1100000,6 bedroom semi-detached house for sale,"Dollis Hill Lane, London, NW2",http://www.rightmove.co.uk/properties/134686250#/?channel=RES_BUY,http://www.rightmove.co.uk/estate-agents/agent/Camerons-Stiff-and-Co/Willesden-Green-London-Sales-13658.html,NW2,,6.0,2023-06-26 08:18:21.397827,Semi-Detached,6.0,2.0,213.0,"Dollis Hill Lane, London",51.5604514,-0.235665
236,1100000,3 bedroom house for sale,"Chambers Lane, London, NW10",http://www.rightmove.co.uk/properties/133713776#/?channel=RES_BUY,http://www.rightmove.co.uk/estate-agents/agent/Camerons-Stiff-and-Co/Willesden-Green-London-Sales-13658.html,NW10,,3.0,2023-06-26 08:18:21.397827,House,3.0,2.0,163.0,"Chambers Lane, London",51.5456025,-0.2302998
238,1100000,4 bedroom semi-detached house for sale,"Preston Road, Wembley Park, Wembley, HA9",http://www.rightmove.co.uk/properties/130840385#/?channel=RES_BUY,http://www.rightmove.co.uk/estate-agents/agent/Foxtons/Wembley-166331.html,HA9,,4.0,2023-06-26 08:18:21.397827,Semi-Detached,4.0,1.0,166.0,"Preston Road, Wembley Park",51.5636774,-0.2788171
242,1075000,3 bedroom apartment for sale,"Crediton Road, Queens Park, London, NW10",http://www.rightmove.co.uk/properties/86123274#/?channel=RES_BUY,http://www.rightmove.co.uk/estate-agents/agent/Garrison-Estates/Notting-Hill-181970.html,NW10,,3.0,2023-06-26 08:18:21.397827,Apartment,3.0,2.0,115.0,"Crediton Road, Queens Park",,
243,1075000,3 bedroom flat for sale,"Salusbury Road, Queen's Park, London, NW6",http://www.rightmove.co.uk/properties/128631371#/?channel=RES_BUY,http://www.rightmove.co.uk/estate-agents/agent/Foxtons/Willesden-Green-71401.html,NW6,,3.0,2023-06-26 08:18:21.397827,Flat,3.0,1.0,99.0,"Salusbury Road, Queen's Park",51.5333514,-0.2037961
248,1000000,5 bedroom detached house for sale,"Oakington Avenue, HA9, Wembley Park, Wembley, HA9",http://www.rightmove.co.uk/properties/130536653#/?channel=RES_BUY,http://www.rightmove.co.uk/estate-agents/agent/Foxtons/Wembley-166331.html,HA9,,5.0,2023-06-26 08:18:21.397827,Detached,5.0,3.0,157.0,"Oakington Avenue, HA9",51.5635969,-0.2868989
251,1000000,5 bedroom terraced house for sale,"Glynfield Road, London",http://www.rightmove.co.uk/properties/134855000#/?channel=RES_BUY,http://www.rightmove.co.uk/estate-agents/agent/Warwick-Estate-Agents/London-2979.html,,,5.0,2023-06-26 08:18:21.397827,Terraced,5.0,3.0,172.0,"Glynfield Road, London",51.5415783,-0.2514928
254,1000000,6 bedroom terraced house for sale,"Olive Road, London, NW2",http://www.rightmove.co.uk/properties/133311653#/?channel=RES_BUY,http://www.rightmove.co.uk/estate-agents/agent/Camerons-Stiff-and-Co/Willesden-Green-London-Sales-13658.html,NW2,,6.0,2023-06-26 08:18:21.397827,Terraced,6.0,3.0,208.0,"Olive Road, London",51.4987614,-0.303506
257,1000000,8 bedroom semi-detached house for sale,"Harrow, London, HA3",http://www.rightmove.co.uk/properties/129181679#/?channel=RES_BUY,http://www.rightmove.co.uk/estate-agents/agent/Chancellors/Stanmore-30482.html,HA3,,8.0,2023-06-26 08:18:21.397827,Semi-Detached,8.0,4.0,187.0,"Harrow, London",51.596827149999996,-0.3373046180437286
260,1000000,4 bedroom semi-detached house for sale,"Hillcrest Gardens, Gladstone Park, London, NW2",http://www.rightmove.co.uk/properties/119592788#/?channel=RES_BUY,http://www.rightmove.co.uk/estate-agents/agent/Foxtons/Willesden-Green-71401.html,NW2,,4.0,2023-06-26 08:18:21.397827,Semi-Detached,4.0,2.0,165.0,"Hillcrest Gardens, Gladstone Park",,
262,1000000,4 bedroom end of terrace house for sale,"Peter Avenue, Willesden Green, London, NW10",http://www.rightmove.co.uk/properties/134219636#/?channel=RES_BUY,http://www.rightmove.co.uk/estate-agents/agent/Foxtons/Willesden-Green-71401.html,NW10,,4.0,2023-06-26 08:18:21.397827,End of Terrace,4.0,2.0,131.0,"Peter Avenue, Willesden Green",51.5437445,-0.2317777
263,1000000,2 bedroom apartment for sale,"Albert Road, Queens Park, London, NW6",http://www.rightmove.co.uk/properties/135704264#/?channel=RES_BUY,http://www.rightmove.co.uk/estate-agents/agent/Century-21-London-Central/Westminster-45920.html,NW6,,2.0,2023-06-26 08:18:21.397827,Apartment,2.0,2.0,92.0,"Albert Road, Queens Park",,
265,1000000,4 bedroom semi-detached house for sale,"Park Avenue North, London, NW10",http://www.rightmove.co.uk/properties/130831970#/?channel=RES_BUY,http://www.rightmove.co.uk/estate-agents/agent/Camerons-Stiff-and-Co/Willesden-Green-London-Sales-13658.html,NW10,,4.0,2023-06-26 08:18:21.397827,Semi-Detached,4.0,2.0,165.0,"Park Avenue North, London",51.5516841,-0.2289038
266,999950,3 bedroom house for sale,"All Souls Avenue, London, NW10",http://www.rightmove.co.uk/properties/135569072#/?channel=RES_BUY,http://www.rightmove.co.uk/estate-agents/agent/Camerons-Stiff-and-Co/Willesden-Green-London-Sales-13658.html,NW10,,3.0,2023-06-26 08:18:21.397827,House,3.0,1.0,127.0,"All Souls Avenue, London",51.5334248,-0.2337886
267,999950,4 bedroom detached house for sale,"Helena Road, London, NW10",http://www.rightmove.co.uk/properties/134158172#/?channel=RES_BUY,http://www.rightmove.co.uk/estate-agents/agent/Camerons-Stiff-and-Co/Willesden-Green-London-Sales-13658.html,NW10,,4.0,2023-06-26 08:18:21.397827,Detached,4.0,2.0,185.0,"Helena Road, London",51.5236123,-0.3028268
271,995950,3 bedroom flat for sale,"Brondesbury Park, Brondesbury Park, London, NW2",http://www.rightmove.co.uk/properties/136372460#/?channel=RES_BUY,http://www.rightmove.co.uk/estate-agents/agent/Foxtons/Willesden-Green-71401.html,NW2,,3.0,2023-06-26 08:18:21.397827,Flat,3.0,2.0,129.0,"Brondesbury Park, Brondesbury Park",51.5405138,-0.2103359
277,995000,3 bedroom apartment for sale,"Harvist Road, London, NW6",http://www.rightmove.co.uk/properties/136431149#/?channel=RES_BUY,http://www.rightmove.co.uk/estate-agents/agent/Marsh-and-Parsons/Queens-Park-140183.html,NW6,,3.0,2023-06-26 08:18:21.397827,Apartment,3.0,2.0,93.0,"Harvist Road, London",51.5335,-0.2110071
281,975000,3 bedroom flat for sale,"Heathfield Park, Willesden Green, London, NW2",http://www.rightmove.co.uk/properties/135737897#/?channel=RES_BUY,http://www.rightmove.co.uk/estate-agents/agent/Foxtons/Willesden-Green-71401.html,NW2,,3.0,2023-06-26 08:18:21.397827,Flat,3.0,2.0,114.0,"Heathfield Park, Willesden Green",51.5470552,-0.2243121
282,975000,5 bedroom semi-detached house for sale,"East Lane, HA9, Wembley, HA9",http://www.rightmove.co.uk/properties/134099231#/?channel=RES_BUY,http://www.rightmove.co.uk/estate-agents/agent/Foxtons/Wembley-166331.html,HA9,,5.0,2023-06-26 08:18:21.397827,Semi-Detached,5.0,3.0,177.0,"East Lane, HA9",51.5615476,-0.2920076
283,975000,2 bedroom apartment for sale,"Brondesbury Road, Queens Park, London, NW6",http://www.rightmove.co.uk/properties/131234264#/?channel=RES_BUY,http://www.rightmove.co.uk/estate-agents/agent/Garrison-Estates/Notting-Hill-181970.html,NW6,,2.0,2023-06-26 08:18:21.397827,Apartment,2.0,2.0,89.0,"Brondesbury Road, Queens Park",51.5333046,-0.2099468
286,975000,2 bedroom apartment for sale,"Crediton Road, London",http://www.rightmove.co.uk/properties/136434932#/?channel=RES_BUY,http://www.rightmove.co.uk/estate-agents/agent/Rigby-And-Marchant/North-Kensington-230237.html,,,2.0,2023-06-26 08:18:21.397827,Apartment,2.0,1.0,101.0,"Crediton Road, London",51.5369432,-0.2196678
289,975000,3 bedroom flat for sale,"Chatsworth Road, London, NW2",http://www.rightmove.co.uk/properties/86138592#/?channel=RES_BUY,http://www.rightmove.co.uk/estate-agents/agent/Camerons-Stiff-and-Co/Willesden-Green-London-Sales-13658.html,NW2,,3.0,2023-06-26 08:18:21.397827,Flat,3.0,1.0,121.0,"Chatsworth Road, London",51.5517549,-0.0438955
295,955000,3 bedroom house for sale,"Ellesmere Road, London, NW10",http://www.rightmove.co.uk/properties/134793137#/?channel=RES_BUY,http://www.rightmove.co.uk/estate-agents/agent/Camerons-Stiff-and-Co/Willesden-Green-London-Sales-13658.html,NW10,,3.0,2023-06-26 08:18:21.397827,House,3.0,2.0,127.0,"Ellesmere Road, London",51.5264208,-0.3568873
296,950000,5 bedroom detached house for sale,"Sudbury Court Road, Harrow HA1",http://www.rightmove.co.uk/properties/134580524#/?channel=RES_BUY,http://www.rightmove.co.uk/estate-agents/agent/Move-Inn-Estates/Heston-113317.html,HA1,,5.0,2023-06-26 08:18:21.397827,Detached,5.0,5.0,224.0,"Sudbury Court Road, Harrow HA1",51.5631325,-0.3251296
298,950000,4 bedroom terraced house for sale,"Napier Road, London",http://www.rightmove.co.uk/properties/135619508#/?channel=RES_BUY,http://www.rightmove.co.uk/estate-agents/agent/Portland-Estate-Agents/London-139901.html,,,4.0,2023-06-26 08:18:21.397827,Terraced,4.0,2.0,148.0,"Napier Road, London",51.3972292,0.0248154
303,950000,4 bedroom terraced house for sale,"Napier Road, Kensal Green NW10",http://www.rightmove.co.uk/properties/135582329#/?channel=RES_BUY,http://www.rightmove.co.uk/estate-agents/agent/Mile/Kensal-Rise-53010.html,NW10,,4.0,2023-06-26 08:18:21.397827,Terraced,4.0,3.0,147.0,"Napier Road, Kensal Green NW10",,
304,950000,3 bedroom flat for sale,"Winchester Avenue, London NW6",http://www.rightmove.co.uk/properties/129169082#/?channel=RES_BUY,http://www.rightmove.co.uk/estate-agents/agent/Camerons-Stiff-and-Co/Queens-Park-238043.html,NW6,,3.0,2023-06-26 08:18:21.397827,Flat,3.0,2.0,125.0,"Winchester Avenue, London NW6",,
308,950000,4 bedroom terraced house for sale,"Napier Road, Kensal Green, London, NW10",http://www.rightmove.co.uk/properties/86209212#/?channel=RES_BUY,http://www.rightmove.co.uk/estate-agents/agent/Foxtons/Willesden-Green-71401.html,NW10,,4.0,2023-06-26 08:18:21.397827,Terraced,4.0,3.0,153.0,"Napier Road, Kensal Green",,
315,935000,3 bedroom house for sale,"Fleetwood Road, Dollis Hill, NW10",http://www.rightmove.co.uk/properties/133532633#/?channel=RES_BUY,http://www.rightmove.co.uk/estate-agents/agent/Camerons-Stiff-and-Co/Willesden-Green-London-Sales-13658.html,NW10,,3.0,2023-06-26 08:18:21.397827,House,3.0,1.0,123.0,"Fleetwood Road, Dollis Hill",51.5536686,-0.2337007
319,925000,5 bedroom semi-detached house for sale,"Leghorn Road, Harlesden, London, NW10",http://www.rightmove.co.uk/properties/129011384#/?channel=RES_BUY,http://www.rightmove.co.uk/estate-agents/agent/Foxtons/Willesden-Green-71401.html,NW10,,5.0,2023-06-26 08:18:21.397827,Semi-Detached,5.0,2.0,139.0,"Leghorn Road, Harlesden",51.5354844,-0.2414122
321,925000,4 bedroom house for sale,"Villiers Road, London, NW2",http://www.rightmove.co.uk/properties/136142369#/?channel=RES_BUY,http://www.rightmove.co.uk/estate-agents/agent/Camerons-Stiff-and-Co/Willesden-Green-London-Sales-13658.html,NW2,,4.0,2023-06-26 08:18:21.397827,House,4.0,3.0,153.0,"Villiers Road, London",51.4030509,-0.2944643
322,925000,5 bedroom semi-detached house for sale,"Wendover Road, Harlesden, London, NW10",http://www.rightmove.co.uk/properties/131415749#/?channel=RES_BUY,http://www.rightmove.co.uk/estate-agents/agent/Foxtons/Willesden-Green-71401.html,NW10,,5.0,2023-06-26 08:18:21.397827,Semi-Detached,5.0,2.0,125.0,"Wendover Road, Harlesden",51.5349153,-0.2461205
327,910000,3 bedroom end of terrace house for sale,"Mark Twain Drive, Gladstone Park, London, NW2",http://www.rightmove.co.uk/properties/133791683#/?channel=RES_BUY,http://www.rightmove.co.uk/estate-agents/agent/Foxtons-Auction/Covering-London-219074.html,NW2,,3.0,2023-06-26 08:18:21.397827,End of Terrace,3.0,3.0,138.0,"Mark Twain Drive, Gladstone Park",,
330,900000,6 bedroom terraced house for sale,"West Ella Road, London",http://www.rightmove.co.uk/properties/125431403#/?channel=RES_BUY,http://www.rightmove.co.uk/estate-agents/agent/Churchill-and-Mathesons-Estate-Agents/Acton-90035.html,,,6.0,2023-06-26 08:18:21.397827,Terraced,6.0,5.0,211.0,"West Ella Road, London",51.5421975,-0.2539034
337,900000,3 bedroom detached house for sale,"Barn Rise, Wembley Park, HA9",http://www.rightmove.co.uk/properties/131661083#/?channel=RES_BUY,http://www.rightmove.co.uk/estate-agents/agent/Keller-Williams-Oxygen/Maidenhead-243590.html,HA9,,3.0,2023-06-26 08:18:21.397827,Detached,3.0,1.0,101.0,"Barn Rise, Wembley Park",,
338,900000,2 bedroom flat for sale,"Winchester Avenue, London NW6",http://www.rightmove.co.uk/properties/135275105#/?channel=RES_BUY,http://www.rightmove.co.uk/estate-agents/agent/Camerons-Stiff-and-Co/Queens-Park-238043.html,NW6,,2.0,2023-06-26 08:18:21.397827,Flat,2.0,2.0,89.0,"Winchester Avenue, London NW6",,
339,900000,6 bedroom terraced house for sale,"West Ella Road, Harlesden, London, NW10",http://www.rightmove.co.uk/properties/128364635#/?channel=RES_BUY,http://www.rightmove.co.uk/estate-agents/agent/Foxtons/Willesden-Green-71401.html,NW10,,6.0,2023-06-26 08:18:21.397827,Terraced,6.0,4.0,205.0,"West Ella Road, Harlesden",51.5421975,-0.2539034
347,899950,3 bedroom semi-detached house for sale,"Bulmer Gardens, Harrow",http://www.rightmove.co.uk/properties/85989894#/?channel=RES_BUY,http://www.rightmove.co.uk/estate-agents/agent/Hamilton-Estates/Wembley-87784.html,,,3.0,2023-06-26 08:18:21.397827,Semi-Detached,3.0,2.0,172.0,"Bulmer Gardens, Harrow",,
348,899950,4 bedroom apartment for sale,"Sidmouth Road, Willesden ",http://www.rightmove.co.uk/properties/116112848#/?channel=RES_BUY,http://www.rightmove.co.uk/estate-agents/agent/Empire-Estates/North-West-London-237251.html,,,4.0,2023-06-26 08:18:21.397827,Apartment,4.0,1.0,118.0,"Sidmouth Road, Willesden ",51.542864,-0.2252552
350,875000,3 bedroom terraced house for sale,"Earlsmead Road, Kensal Green, London",http://www.rightmove.co.uk/properties/127854725#/?channel=RES_BUY,http://www.rightmove.co.uk/estate-agents/agent/Warwick-Estate-Agents/London-2979.html,,,3.0,2023-06-26 08:18:21.397827,Terraced,3.0,2.0,102.0,"Earlsmead Road, Kensal Green",,
357,885000,5 bedroom terraced house for sale,"Balmoral Road, Willesden Green, NW2",http://www.rightmove.co.uk/properties/121890983#/?channel=RES_BUY,http://www.rightmove.co.uk/estate-agents/agent/Chancellors/Hampstead-41322.html,NW2,,5.0,2023-06-26 08:18:21.397827,Terraced,5.0,2.0,154.0,"Balmoral Road, Willesden Green",51.5491076,-0.2284609895981085
358,875000,3 bedroom flat for sale,"Holland Road, London, NW10",http://www.rightmove.co.uk/properties/135817892#/?channel=RES_BUY,http://www.rightmove.co.uk/estate-agents/agent/Camerons-Stiff-and-Co/Willesden-Green-London-Sales-13658.html,NW10,,3.0,2023-06-26 08:18:21.397827,Flat,3.0,1.0,87.0,"Holland Road, London",51.5043026,-0.2159903
359,875000,4 bedroom terraced house for sale,"Burnley Road, Gladstone Park, London, NW10",http://www.rightmove.co.uk/properties/133073021#/?channel=RES_BUY,http://www.rightmove.co.uk/estate-agents/agent/Foxtons/Willesden-Green-71401.html,NW10,,4.0,2023-06-26 08:18:21.397827,Terraced,4.0,2.0,154.0,"Burnley Road, Gladstone Park",,
363,875000,3 bedroom terraced house for sale,"Earlsmead Road, Kensal Green, London",http://www.rightmove.co.uk/properties/127854725#/?channel=RES_BUY,http://www.rightmove.co.uk/estate-agents/agent/Warwick-Estate-Agents/London-2979.html,,,3.0,2023-06-26 08:18:21.397827,Terraced,3.0,2.0,102.0,"Earlsmead Road, Kensal Green",,
366,875000,3 bedroom house for sale,"Riffel Road, London, NW2",http://www.rightmove.co.uk/properties/135786983#/?channel=RES_BUY,http://www.rightmove.co.uk/estate-agents/agent/Camerons-Stiff-and-Co/Willesden-Green-London-Sales-13658.html,NW2,,3.0,2023-06-26 08:18:21.397827,House,3.0,1.0,105.0,"Riffel Road, London",51.5510617,-0.2251045
369,850000,4 bedroom house for sale,"Clifton Avenue, Wembley, HA9",http://www.rightmove.co.uk/properties/131218271#/?channel=RES_BUY,http://www.rightmove.co.uk/estate-agents/agent/Foxtons/Wembley-166331.html,HA9,,4.0,2023-06-26 08:18:21.397827,House,4.0,2.0,161.0,"Clifton Avenue, Wembley",51.5510776,-0.2863657
371,850000,4 bedroom detached house for sale,"Kenelm Close, Harrow, Middlesex, HA1",http://www.rightmove.co.uk/properties/122623556#/?channel=RES_BUY,http://www.rightmove.co.uk/estate-agents/agent/ElliotLee/Rayners-Lane-61517.html,HA1,,4.0,2023-06-26 08:18:21.397827,Detached,4.0,2.0,140.0,"Kenelm Close, Harrow",,
376,850000,3 bedroom flat for sale,"Teignmouth Road, Mapesbury",http://www.rightmove.co.uk/properties/107976896#/?channel=RES_BUY,http://www.rightmove.co.uk/estate-agents/agent/Empire-Estates/North-West-London-237251.html,,,3.0,2023-06-26 08:18:21.397827,Flat,3.0,1.0,112.0,"Teignmouth Road, Mapesbury",,
380,850000,4 bedroom house for sale,"Sellons Avenue, London, NW10",http://www.rightmove.co.uk/properties/133893494#/?channel=RES_BUY,http://www.rightmove.co.uk/estate-agents/agent/Camerons-Stiff-and-Co/Willesden-Green-London-Sales-13658.html,NW10,,4.0,2023-06-26 08:18:21.397827,House,4.0,2.0,165.0,"Sellons Avenue, London",51.5393663,-0.243627
395,850000,3 bedroom house for sale,"Dewsbury Road, London, NW10",http://www.rightmove.co.uk/properties/132698582#/?channel=RES_BUY,http://www.rightmove.co.uk/estate-agents/agent/Camerons-Stiff-and-Co/Willesden-Green-London-Sales-13658.html,NW10,,3.0,2023-06-26 08:18:21.397827,House,3.0,1.0,117.0,"Dewsbury Road, London",51.6041769,0.2234587
401,849950,4 bedroom house for sale,"Elms Lane, Wembley, HA0",http://www.rightmove.co.uk/properties/132687647#/?channel=RES_BUY,http://www.rightmove.co.uk/estate-agents/agent/Foxtons/Wembley-166331.html,HA0,,4.0,2023-06-26 08:18:21.397827,House,4.0,5.0,202.0,"Elms Lane, Wembley",51.5578084,-0.3222447
405,840000,3 bedroom flat for sale,"Kilburn high road, Kilburn, London, NW6",http://www.rightmove.co.uk/properties/86126730#/?channel=RES_BUY,http://www.rightmove.co.uk/estate-agents/agent/Foxtons/West-Hampstead-137372.html,NW6,,3.0,2023-06-26 08:18:21.397827,Flat,3.0,2.0,80.0,"Kilburn high road, Kilburn",51.5377475,-0.1913533
410,825000,2 bedroom flat for sale,"Albert Road, Queen's Park, London, NW6",http://www.rightmove.co.uk/properties/129161132#/?channel=RES_BUY,http://www.rightmove.co.uk/estate-agents/agent/Foxtons/Maida-Vale-151658.html,NW6,,2.0,2023-06-26 08:18:21.397827,Flat,2.0,2.0,84.0,"Albert Road, Queen's Park",51.5340029,-0.201403
412,825000,3 bedroom terraced house for sale,"Mora Road, Cricklewood NW2",http://www.rightmove.co.uk/properties/135990530#/?channel=RES_BUY,http://www.rightmove.co.uk/estate-agents/agent/Camerons-Stiff-and-Co/Willesden-Green-London-Sales-13658.html,NW2,,3.0,2023-06-26 08:18:21.397827,Terraced,3.0,2.0,146.0,"Mora Road, Cricklewood NW2",51.5591023,-0.2208252
414,825000,2 bedroom flat for sale,"Keslake Road, London, NW6",http://www.rightmove.co.uk/properties/135275150#/?channel=RES_BUY,http://www.rightmove.co.uk/estate-agents/agent/Camerons-Stiff-and-Co/Queens-Park-238043.html,NW6,,2.0,2023-06-26 08:18:21.397827,Flat,2.0,2.0,97.0,"Keslake Road, London",51.5342497,-0.2152247
423,815000,3 bedroom apartment for sale,"Brondesbury Park, NW6",http://www.rightmove.co.uk/properties/122929694#/?channel=RES_BUY,http://www.rightmove.co.uk/estate-agents/agent/Camerons-Stiff-and-Co/Willesden-Green-London-Sales-13658.html,NW6,,3.0,2023-06-26 08:18:21.397827,Apartment,3.0,1.0,94.0,"Brondesbury Park, NW6",51.5401536,-0.2125369
425,615000,2 bedroom flat for sale,"Olympic Way, Wembley Park, Wembley, HA9",http://www.rightmove.co.uk/properties/135580913#/?channel=RES_BUY,http://www.rightmove.co.uk/estate-agents/agent/Foxtons/Wembley-166331.html,HA9,,2.0,2023-06-26 08:18:21.397827,Flat,2.0,2.0,81.0,"Olympic Way, Wembley Park",,
431,800000,2 bedroom flat for sale,"Mapesbury Road, Mapesbury Estate, London, NW2",http://www.rightmove.co.uk/properties/127039286#/?channel=RES_BUY,http://www.rightmove.co.uk/estate-agents/agent/Foxtons-Auction/Covering-London-219074.html,NW2,,2.0,2023-06-26 08:18:21.397827,Flat,2.0,1.0,150.0,"Mapesbury Road, Mapesbury Estate",,
433,800000,4 bedroom semi-detached bungalow for sale,"Beechcroft Gardens, Wembley",http://www.rightmove.co.uk/properties/134242271#/?channel=RES_BUY,http://www.rightmove.co.uk/estate-agents/agent/ElliotLee/Rayners-Lane-61517.html,,,4.0,2023-06-26 08:18:21.397827,Semi-Detached Bungalow,4.0,2.0,152.0,"Beechcroft Gardens, Wembley",51.5620481,-0.2885664
435,800000,3 bedroom apartment for sale,"Wembley, HA0",http://www.rightmove.co.uk/properties/131831909#/?channel=RES_BUY,http://www.rightmove.co.uk/estate-agents/agent/Luxury-Living-Homes-International/London-247181.html,HA0,,3.0,2023-06-26 08:18:21.397827,Apartment,3.0,1.0,100.0,"Wembley, HA0",51.5501504,-0.298414238873129
440,800000,5 bedroom terraced house for sale,"Lansdowne Grove, Neasden, London, NW10",http://www.rightmove.co.uk/properties/130891685#/?channel=RES_BUY,http://www.rightmove.co.uk/estate-agents/agent/Foxtons/Willesden-Green-71401.html,NW10,,5.0,2023-06-26 08:18:21.397827,Terraced,5.0,1.0,142.0,"Lansdowne Grove, Neasden",,
442,800000,3 bedroom semi-detached house for sale,"Fleetwood Road, Dollis Hill, London, NW10",http://www.rightmove.co.uk/properties/127526840#/?channel=RES_BUY,http://www.rightmove.co.uk/estate-agents/agent/Foxtons/Willesden-Green-71401.html,NW10,,3.0,2023-06-26 08:18:21.397827,Semi-Detached,3.0,1.0,98.0,"Fleetwood Road, Dollis Hill",51.5536686,-0.2337007
443,800000,4 bedroom house for sale,"Villiers Road, London, NW2",http://www.rightmove.co.uk/properties/135816077#/?channel=RES_BUY,http://www.rightmove.co.uk/estate-agents/agent/Camerons-Stiff-and-Co/Willesden-Green-London-Sales-13658.html,NW2,,4.0,2023-06-26 08:18:21.397827,House,4.0,2.0,160.0,"Villiers Road, London",51.4030509,-0.2944643
445,800000,3 bedroom end of terrace house for sale,"Manor Farm Road, Alperton, Wembley, HA0",http://www.rightmove.co.uk/properties/135090548#/?channel=RES_BUY,http://www.rightmove.co.uk/estate-agents/agent/Foxtons/Wembley-166331.html,HA0,,3.0,2023-06-26 08:18:21.397827,End of Terrace,3.0,2.0,156.0,"Manor Farm Road, Alperton",51.5404167,-0.3025227
452,799950,3 bedroom house for sale,"Harlesden Road, London, NW10",http://www.rightmove.co.uk/properties/135905234#/?channel=RES_BUY,http://www.rightmove.co.uk/estate-agents/agent/Camerons-Stiff-and-Co/Willesden-Green-London-Sales-13658.html,NW10,,3.0,2023-06-26 08:18:21.397827,House,3.0,1.0,110.0,"Harlesden Road, London",51.5441629,-0.2358059
454,799950,3 bedroom semi-detached house for sale,"Fleetwood Road, London, NW10",http://www.rightmove.co.uk/properties/127517711#/?channel=RES_BUY,http://www.rightmove.co.uk/estate-agents/agent/Camerons-Stiff-and-Co/Willesden-Green-London-Sales-13658.html,NW10,,3.0,2023-06-26 08:18:21.397827,Semi-Detached,3.0,1.0,122.0,"Fleetwood Road, London",51.5536686,-0.2337007
456,799950,3 bedroom detached house for sale,"Harlesden Road, London NW10",http://www.rightmove.co.uk/properties/109290350#/?channel=RES_BUY,http://www.rightmove.co.uk/estate-agents/agent/Camerons-Stiff-and-Co/Willesden-Green-London-Sales-13658.html,NW10,,3.0,2023-06-26 08:18:21.397827,Detached,3.0,2.0,151.0,"Harlesden Road, London NW10",51.53888310000001,-0.2544932093709247
467,785000,3 bedroom apartment for sale,Wembley,http://www.rightmove.co.uk/properties/134981228#/?channel=RES_BUY,http://www.rightmove.co.uk/estate-agents/agent/Luxury-Living-Homes-International/London-247181.html,,,3.0,2023-06-26 08:18:21.397827,Apartment,3.0,3.0,101.0,Wembley,51.55606945,-0.27960339379401444
471,779950,2 bedroom flat for sale,"Buchanan Gardens, London, NW10",http://www.rightmove.co.uk/properties/132756242#/?channel=RES_BUY,http://www.rightmove.co.uk/estate-agents/agent/Camerons-Stiff-and-Co/Willesden-Green-London-Sales-13658.html,NW10,,2.0,2023-06-26 08:18:21.397827,Flat,2.0,1.0,81.0,"Buchanan Gardens, London",51.5342595,-0.2300258
473,775000,2 bedroom flat for sale,"Streatley Road, London, NW6",http://www.rightmove.co.uk/properties/133877972#/?channel=RES_BUY,http://www.rightmove.co.uk/estate-agents/agent/Camerons-Stiff-and-Co/Queens-Park-238043.html,NW6,,2.0,2023-06-26 08:18:21.397827,Flat,2.0,1.0,90.0,"Streatley Road, London",51.5421268,-0.2014616
480,775000,3 bedroom flat for sale,"NORTH END ROAD, HA9, Wembley Park, HA9",http://www.rightmove.co.uk/properties/132822557#/?channel=RES_BUY,http://www.rightmove.co.uk/estate-agents/agent/Foxtons/Wembley-166331.html,HA9,,3.0,2023-06-26 08:18:21.397827,Flat,3.0,2.0,95.0,"NORTH END ROAD, HA9",51.560766,-0.2730859
481,775000,4 bedroom flat for sale,"Spezia Road, Kensal Green, London, NW10",http://www.rightmove.co.uk/properties/131845871#/?channel=RES_BUY,http://www.rightmove.co.uk/estate-agents/agent/Foxtons/Willesden-Green-71401.html,NW10,,4.0,2023-06-26 08:18:21.397827,Flat,4.0,2.0,105.0,"Spezia Road, Kensal Green",,
488,775000,4 bedroom semi-detached house for sale,"St James Gardens, Alperton, Wembley, HA0",http://www.rightmove.co.uk/properties/135455723#/?channel=RES_BUY,http://www.rightmove.co.uk/estate-agents/agent/Foxtons/Wembley-166331.html,HA0,,4.0,2023-06-26 08:18:21.397827,Semi-Detached,4.0,2.0,170.0,"St James Gardens, Alperton",51.5426424,-0.2988264
490,775000,4 bedroom semi-detached house for sale,"Sudbury Court Estate , Wembley",http://www.rightmove.co.uk/properties/133260047#/?channel=RES_BUY,http://www.rightmove.co.uk/estate-agents/agent/ElliotLee/Rayners-Lane-61517.html,,,4.0,2023-06-26 08:18:21.397827,Semi-Detached,4.0,1.0,168.0,"Sudbury Court Estate , Wembley",,
494,775000,3 bedroom semi-detached house for sale,"Ormesby Way, HA3, Preston, Harrow, HA3",http://www.rightmove.co.uk/properties/131066051#/?channel=RES_BUY,http://www.rightmove.co.uk/estate-agents/agent/Foxtons/Harrow-108947.html,HA3,,3.0,2023-06-26 08:18:21.397827,Semi-Detached,3.0,1.0,110.0,"Ormesby Way, HA3",51.5825348,-0.2897264
515,750000,3 bedroom apartment for sale,"Beresford Avenue, London, HA0",http://www.rightmove.co.uk/properties/133101101#/?channel=RES_BUY,http://www.rightmove.co.uk/estate-agents/agent/Lixing/Canary-Wharf-225596.html,HA0,,3.0,2023-06-26 08:18:21.397827,Apartment,3.0,3.0,101.0,"Beresford Avenue, London",51.5412865,-0.2837148
517,750000,3 bedroom flat for sale,"Sidmouth Road, Willesden Green, London, NW2",http://www.rightmove.co.uk/properties/77733459#/?channel=RES_BUY,http://www.rightmove.co.uk/estate-agents/agent/Foxtons/Willesden-Green-71401.html,NW2,,3.0,2023-06-26 08:18:21.397827,Flat,3.0,2.0,123.0,"Sidmouth Road, Willesden Green",51.542864,-0.2252552
518,750000,2 bedroom flat for sale,"Anson Road, London NW2",http://www.rightmove.co.uk/properties/136445675#/?channel=RES_BUY,http://www.rightmove.co.uk/estate-agents/agent/Camerons-Stiff-and-Co/Willesden-Green-London-Sales-13658.html,NW2,,2.0,2023-06-26 08:18:21.397827,Flat,2.0,2.0,86.0,"Anson Road, London NW2",51.5541905,-0.2206381
520,750000,4 bedroom semi-detached house for sale,"The Fairway,  Sudbury Court, Wembley,",http://www.rightmove.co.uk/properties/130749008#/?channel=RES_BUY,http://www.rightmove.co.uk/estate-agents/agent/ElliotLee/Rayners-Lane-61517.html,,,4.0,2023-06-26 08:18:21.397827,Semi-Detached,4.0,2.0,156.0,"The Fairway,  Sudbury Court",,
524,750000,3 bedroom end of terrace house for sale,"Balmoral Road, London, NW2 5DU",http://www.rightmove.co.uk/properties/135707105#/?channel=RES_BUY,http://www.rightmove.co.uk/estate-agents/agent/eXp-UK/London-238265.html,NW2,NW2 5DU,3.0,2023-06-26 08:18:21.397827,End of Terrace,3.0,2.0,108.0,"Balmoral Road, London",51.5481476,0.0356594
526,750000,2 bedroom flat for sale,"Ridley Road, Kensal Green, London, NW10",http://www.rightmove.co.uk/properties/135765788#/?channel=RES_BUY,http://www.rightmove.co.uk/estate-agents/agent/Foxtons/Willesden-Green-71401.html,NW10,,2.0,2023-06-26 08:18:21.397827,Flat,2.0,1.0,81.0,"Ridley Road, Kensal Green",,
529,750000,3 bedroom flat for sale,"Teignmouth Road, London",http://www.rightmove.co.uk/properties/107977082#/?channel=RES_BUY,http://www.rightmove.co.uk/estate-agents/agent/Empire-Estates/North-West-London-237251.html,,,3.0,2023-06-26 08:18:21.397827,Flat,3.0,2.0,74.0,"Teignmouth Road, London",51.5501113,-0.2143516
530,750000,3 bedroom bungalow for sale,"Wembley Hill Road, Wembley Park, Wembley, HA9",http://www.rightmove.co.uk/properties/134277410#/?channel=RES_BUY,http://www.rightmove.co.uk/estate-agents/agent/Foxtons/Wembley-166331.html,HA9,,3.0,2023-06-26 08:18:21.397827,Bungalow,3.0,1.0,129.0,"Wembley Hill Road, Wembley Park",51.5587942,-0.2908938
531,750000,2 bedroom flat for sale,"Bristol Walk, Kilburn, London, NW6",http://www.rightmove.co.uk/properties/135652421#/?channel=RES_BUY,http://www.rightmove.co.uk/estate-agents/agent/Foxtons/Maida-Vale-151658.html,NW6,,2.0,2023-06-26 08:18:21.397827,Flat,2.0,2.0,86.0,"Bristol Walk, Kilburn",,
533,750000,3 bedroom semi-detached house for sale,"Ledway Drive, Preston, Wembley, HA9",http://www.rightmove.co.uk/properties/135516260#/?channel=RES_BUY,http://www.rightmove.co.uk/estate-agents/agent/Foxtons/Wembley-166331.html,HA9,,3.0,2023-06-26 08:18:21.397827,Semi-Detached,3.0,1.0,111.0,"Ledway Drive, Preston",51.575534,-0.2885185
534,750000,3 bedroom flat for sale,"Park Ave, Willesden",http://www.rightmove.co.uk/properties/136485701#/?channel=RES_BUY,http://www.rightmove.co.uk/estate-agents/agent/Portland-Estate-Agents/London-139901.html,,,3.0,2023-06-26 08:18:21.397827,Flat,3.0,2.0,82.0,"Park Ave, Willesden",51.5485088,-0.2265359
535,750000,3 bedroom semi-detached house for sale,"Castleton Avenue, Wembley, HA9",http://www.rightmove.co.uk/properties/136283825#/?channel=RES_BUY,http://www.rightmove.co.uk/estate-agents/agent/Foxtons/Wembley-166331.html,HA9,,3.0,2023-06-26 08:18:21.397827,Semi-Detached,3.0,1.0,132.0,"Castleton Avenue, Wembley",51.559472,-0.2973293
539,750000,4 bedroom terraced house for sale,"Casselden Road, Harlesden, NW10",http://www.rightmove.co.uk/properties/133036163#/?channel=RES_BUY,http://www.rightmove.co.uk/estate-agents/agent/Capital-Estate-Agents/Bromley-20969.html,NW10,,4.0,2023-06-26 08:18:21.397827,Terraced,4.0,1.0,12.0,"Casselden Road, Harlesden",51.5425985,-0.2585477
543,740000,2 bedroom flat for sale,"Plympton Road, Queen's Park, London, NW6",http://www.rightmove.co.uk/properties/132398765#/?channel=RES_BUY,http://www.rightmove.co.uk/estate-agents/agent/Foxtons/West-Hampstead-137372.html,NW6,,2.0,2023-06-26 08:18:21.397827,Flat,2.0,2.0,94.0,"Plympton Road, Queen's Park",51.5430269,-0.2033934
546,735000,5 bedroom maisonette for sale,"Mora Road, Cricklewood, London, NW2",http://www.rightmove.co.uk/properties/131845874#/?channel=RES_BUY,http://www.rightmove.co.uk/estate-agents/agent/Foxtons/Willesden-Green-71401.html,NW2,,5.0,2023-06-26 08:18:21.397827,Maisonette,5.0,2.0,121.0,"Mora Road, Cricklewood",51.5588186,-0.221366
556,725000,6 bedroom house for sale,"Nettleden Avenue, Wembley, HA9",http://www.rightmove.co.uk/properties/120688817#/?channel=RES_BUY,http://www.rightmove.co.uk/estate-agents/agent/Foxtons/Wembley-166331.html,HA9,,6.0,2023-06-26 08:18:21.397827,House,6.0,4.0,158.0,"Nettleden Avenue, Wembley",51.5491763,-0.2821406
559,725000,5 bedroom semi-detached house for sale,"Attewood Avenue, Neasden, London, NW10",http://www.rightmove.co.uk/properties/127864613#/?channel=RES_BUY,http://www.rightmove.co.uk/estate-agents/agent/Foxtons/Wembley-166331.html,NW10,,5.0,2023-06-26 08:18:21.397827,Semi-Detached,5.0,3.0,114.0,"Attewood Avenue, Neasden",,
563,725000,3 bedroom flat for sale,"Rainham Road, London, NW10",http://www.rightmove.co.uk/properties/135699041#/?channel=RES_BUY,http://www.rightmove.co.uk/estate-agents/agent/Camerons-Stiff-and-Co/Queens-Park-238043.html,NW10,,3.0,2023-06-26 08:18:21.397827,Flat,3.0,2.0,90.0,"Rainham Road, London",51.5223591,0.1905532
566,725000,4 bedroom house for sale,"Lansdowne Grove, Neasden, London, NW10",http://www.rightmove.co.uk/properties/124892681#/?channel=RES_BUY,http://www.rightmove.co.uk/estate-agents/agent/Foxtons/Willesden-Green-71401.html,NW10,,4.0,2023-06-26 08:18:21.397827,House,4.0,1.0,134.0,"Lansdowne Grove, Neasden",,
574,725000,3 bedroom semi-detached house for sale,"Crownhill Road, Harlesden, London, NW10",http://www.rightmove.co.uk/properties/135455792#/?channel=RES_BUY,http://www.rightmove.co.uk/estate-agents/agent/Foxtons/Willesden-Green-71401.html,NW10,,3.0,2023-06-26 08:18:21.397827,Semi-Detached,3.0,2.0,147.0,"Crownhill Road, Harlesden",51.5377516,-0.2481069
575,2850000,4 bedroom house for sale,"Montrose Avenue, London, NW6",http://www.rightmove.co.uk/properties/134323838#/?channel=RES_BUY,http://www.rightmove.co.uk/estate-agents/agent/Camerons-Stiff-and-Co/Queens-Park-238043.html,NW6,,4.0,2023-06-26 08:18:21.397827,House,4.0,3.0,218.0,"Montrose Avenue, London",51.5987262,-0.2611732
576,725000,3 bedroom semi-detached house for sale,"Crownhill Road, Harlesden, London, NW10",http://www.rightmove.co.uk/properties/135455792#/?channel=RES_BUY,http://www.rightmove.co.uk/estate-agents/agent/Foxtons/Willesden-Green-71401.html,NW10,,3.0,2023-06-26 08:18:21.397827,Semi-Detached,3.0,2.0,147.0,"Crownhill Road, Harlesden",51.5377516,-0.2481069
578,725000,4 bedroom semi-detached house for sale,"Rowley Close, Alperton, Wembley, HA0",http://www.rightmove.co.uk/properties/133866845#/?channel=RES_BUY,http://www.rightmove.co.uk/estate-agents/agent/Foxtons/Wembley-166331.html,HA0,,4.0,2023-06-26 08:18:21.397827,Semi-Detached,4.0,2.0,112.0,"Rowley Close, Alperton",51.5438243,-0.2870505
580,725000,3 bedroom terraced house for sale,"Manor Park Road, Harlesden, London, NW10",http://www.rightmove.co.uk/properties/117008135#/?channel=RES_BUY,http://www.rightmove.co.uk/estate-agents/agent/Foxtons/Willesden-Green-71401.html,NW10,,3.0,2023-06-26 08:18:21.397827,Terraced,3.0,1.0,131.0,"Manor Park Road, Harlesden",51.5387645,-0.2501263
583,725000,3 bedroom flat for sale,"Rainham Road, Kensal Green, London, NW10",http://www.rightmove.co.uk/properties/135109898#/?channel=RES_BUY,http://www.rightmove.co.uk/estate-agents/agent/Foxtons/Willesden-Green-71401.html,NW10,,3.0,2023-06-26 08:18:21.397827,Flat,3.0,2.0,91.0,"Rainham Road, Kensal Green",,
598,700000,2 bedroom flat for sale,"Harvist Road, London, NW6",http://www.rightmove.co.uk/properties/135563006#/?channel=RES_BUY,http://www.rightmove.co.uk/estate-agents/agent/Camerons-Stiff-and-Co/Queens-Park-238043.html,NW6,,2.0,2023-06-26 08:18:21.397827,Flat,2.0,1.0,80.0,"Harvist Road, London",51.5335,-0.2110071
603,700000,3 bedroom semi-detached house for sale,"Medway Gardens, Wembley, Greater London, HA0 2RW",http://www.rightmove.co.uk/properties/136109006#/?channel=RES_BUY,http://www.rightmove.co.uk/estate-agents/agent/Grey-and-Co/Wembley-7000.html,HA0,HA0 2RW,3.0,2023-06-26 08:18:21.397827,Semi-Detached,3.0,2.0,11.0,"Medway Gardens, Wembley",51.5564249,-0.3243383
606,700000,3 bedroom semi-detached house for sale,"Chamberlayne Avenue, Preston, Wembley, HA9",http://www.rightmove.co.uk/properties/119764019#/?channel=RES_BUY,http://www.rightmove.co.uk/estate-agents/agent/Foxtons/Wembley-166331.html,HA9,,3.0,2023-06-26 08:18:21.397827,Semi-Detached,3.0,3.0,108.0,"Chamberlayne Avenue, Preston",51.5656895,-0.2961435
610,700000,4 bedroom end of terrace house for sale,"Lancelot Avenue, North Wembley, Wembley, HA0",http://www.rightmove.co.uk/properties/135532481#/?channel=RES_BUY,http://www.rightmove.co.uk/estate-agents/agent/Foxtons/Wembley-166331.html,HA0,,4.0,2023-06-26 08:18:21.397827,End of Terrace,4.0,2.0,81.0,"Lancelot Avenue, North Wembley",51.5591711,-0.3027685
613,700000,5 bedroom apartment for sale,"Longstone Avenue, London",http://www.rightmove.co.uk/properties/124666043#/?channel=RES_BUY,http://www.rightmove.co.uk/estate-agents/agent/Churchill-and-Mathesons-Estate-Agents/Acton-90035.html,,,5.0,2023-06-26 08:18:21.397827,Apartment,5.0,5.0,128.0,"Longstone Avenue, London",51.543241800000004,-0.2446800285510344
614,700000,3 bedroom semi-detached house for sale,"St James Gardens, Wembley, HA0",http://www.rightmove.co.uk/properties/86197371#/?channel=RES_BUY,http://www.rightmove.co.uk/estate-agents/agent/Foxtons/Wembley-166331.html,HA0,,3.0,2023-06-26 08:18:21.397827,Semi-Detached,3.0,1.0,94.0,"St James Gardens, Wembley",51.5426424,-0.2988264
629,699950,2 bedroom flat for sale,"Wakeman Road, Kensal Green",http://www.rightmove.co.uk/properties/134945948#/?channel=RES_BUY,http://www.rightmove.co.uk/estate-agents/agent/Parkheath/Kensal-Rise-151640.html,,,2.0,2023-06-26 08:18:21.397827,Flat,2.0,2.0,84.0,"Wakeman Road, Kensal Green",,
644,689000,3 bedroom apartment for sale,"Grand Union, London, HA0",http://www.rightmove.co.uk/properties/129461600#/?channel=RES_BUY,http://www.rightmove.co.uk/estate-agents/agent/Lixing/Shoreditch-254453.html,HA0,,3.0,2023-06-26 08:18:21.397827,Apartment,3.0,2.0,105.0,"Grand Union, London",51.5401312,-0.28182316296899484
657,675000,2 bedroom flat for sale,"Beethoven Street, London, W10",http://www.rightmove.co.uk/properties/134566433#/?channel=RES_BUY,http://www.rightmove.co.uk/estate-agents/agent/Camerons-Stiff-and-Co/Queens-Park-238043.html,W10,,2.0,2023-06-26 08:18:21.397827,Flat,2.0,1.0,71.0,"Beethoven Street, London",51.5312808,-0.2085137
661,675000,3 bedroom end of terrace house for sale,"Cecil Avenue, Wembley, HA9",http://www.rightmove.co.uk/properties/135516269#/?channel=RES_BUY,http://www.rightmove.co.uk/estate-agents/agent/Foxtons/Wembley-166331.html,HA9,,3.0,2023-06-26 08:18:21.397827,End of Terrace,3.0,2.0,113.0,"Cecil Avenue, Wembley",51.5536658,-0.2896374
668,670000,4 bedroom town house for sale,"Shelley Road, Harlesden, London",http://www.rightmove.co.uk/properties/50561334#/?channel=RES_BUY,http://www.rightmove.co.uk/estate-agents/agent/Winkworth/Kingsbury-Sales-65598.html,,,4.0,2023-06-26 08:18:21.397827,Town House,4.0,1.0,105.0,"Shelley Road, Harlesden",51.5383306,-0.2597881
672,665000,2 bedroom flat for sale,"Albert Road, Queen's Park, London, NW6",http://www.rightmove.co.uk/properties/131586035#/?channel=RES_BUY,http://www.rightmove.co.uk/estate-agents/agent/Hilton-and-Fox/Wembley-237482.html,NW6,,2.0,2023-06-26 08:18:21.397827,Flat,2.0,1.0,89.0,"Albert Road, Queen's Park",51.5340029,-0.201403
681,650000,3 bedroom duplex for sale,"Willesden Lane, Brondesbury, NW6",http://www.rightmove.co.uk/properties/135222881#/?channel=RES_BUY,http://www.rightmove.co.uk/estate-agents/agent/ML-Estates/London-45180.html,NW6,,3.0,2023-06-26 08:18:21.397827,Duplex,3.0,2.0,117.0,"Willesden Lane, Brondesbury",51.5474633,-0.2243857
682,650000,2 bedroom flat for sale,"Olympic Way, Wembley Park, Wembley, HA9",http://www.rightmove.co.uk/properties/136510205#/?channel=RES_BUY,http://www.rightmove.co.uk/estate-agents/agent/Foxtons/Wembley-166331.html,HA9,,2.0,2023-06-26 08:18:21.397827,Flat,2.0,2.0,77.0,"Olympic Way, Wembley Park",,
693,650000,3 bedroom flat for sale,"Silverworks Close, Colindale, London, NW9",http://www.rightmove.co.uk/properties/128450408#/?channel=RES_BUY,http://www.rightmove.co.uk/estate-agents/agent/Foxtons/Stanmore-250739.html,NW9,,3.0,2023-06-26 08:18:21.397827,Flat,3.0,2.0,114.0,"Silverworks Close, Colindale",,
701,650000,3 bedroom terraced house for sale,"Yewfield Road, Willesden, London, NW10",http://www.rightmove.co.uk/properties/130536674#/?channel=RES_BUY,http://www.rightmove.co.uk/estate-agents/agent/Foxtons/Willesden-Green-71401.html,NW10,,3.0,2023-06-26 08:18:21.397827,Terraced,3.0,1.0,95.0,"Yewfield Road, Willesden",51.5467642,-0.2465043
711,650000,4 bedroom flat for sale,"Sidmouth Road, Brondesbury Park, London",http://www.rightmove.co.uk/properties/132239510#/?channel=RES_BUY,http://www.rightmove.co.uk/estate-agents/agent/Warwick-Estate-Agents/London-2979.html,,,4.0,2023-06-26 08:18:21.397827,Flat,4.0,1.0,124.0,"Sidmouth Road, Brondesbury Park",51.5463782,-0.2213116
712,650000,2 bedroom flat for sale,"Glengall Road, London NW6",http://www.rightmove.co.uk/properties/132447149#/?channel=RES_BUY,http://www.rightmove.co.uk/estate-agents/agent/Camerons-Stiff-and-Co/Queens-Park-238043.html,NW6,,2.0,2023-06-26 08:18:21.397827,Flat,2.0,2.0,70.0,"Glengall Road, London NW6",,
730,640000,3 bedroom flat for sale,"Wrottesley Road, London, NW10",http://www.rightmove.co.uk/properties/134590688#/?channel=RES_BUY,http://www.rightmove.co.uk/estate-agents/agent/Camerons-Stiff-and-Co/Willesden-Green-London-Sales-13658.html,NW10,,3.0,2023-06-26 08:18:21.397827,Flat,3.0,1.0,88.0,"Wrottesley Road, London",51.5325544,-0.2335954
748,625000,3 bedroom terraced house for sale,"Brenthurst Road, Willesden, London, NW10",http://www.rightmove.co.uk/properties/136133996#/?channel=RES_BUY,http://www.rightmove.co.uk/estate-agents/agent/Foxtons/Willesden-Green-71401.html,NW10,,3.0,2023-06-26 08:18:21.397827,Terraced,3.0,2.0,125.0,"Brenthurst Road, Willesden",51.5500793,-0.2443748
754,625000,3 bedroom semi-detached house for sale,"Foxlees, Sudbury, Wembley, HA0",http://www.rightmove.co.uk/properties/131735702#/?channel=RES_BUY,http://www.rightmove.co.uk/estate-agents/agent/Foxtons/Wembley-166331.html,HA0,,3.0,2023-06-26 08:18:21.397827,Semi-Detached,3.0,2.0,87.0,"Foxlees, Sudbury",51.5597638,-0.3222765
762,625000,2 bedroom flat for sale,"Donnington Road, Willesden, London, NW10",http://www.rightmove.co.uk/properties/126996728#/?channel=RES_BUY,http://www.rightmove.co.uk/estate-agents/agent/Foxtons/Willesden-Green-71401.html,NW10,,2.0,2023-06-26 08:18:21.397827,Flat,2.0,1.0,79.0,"Donnington Road, Willesden",51.5419561,-0.233411
767,620000,4 bedroom end of terrace house for sale,"Oaklands Road, Willesden Green, London",http://www.rightmove.co.uk/properties/124733090#/?channel=RES_BUY,http://www.rightmove.co.uk/estate-agents/agent/Portland-Estate-Agents/London-139901.html,,,4.0,2023-06-26 08:18:21.397827,End of Terrace,4.0,2.0,96.0,"Oaklands Road, Willesden Green",,
771,620000,2 bedroom flat for sale,"North End Road, HA9, Wembley Park, WEMBLEY, HA9",http://www.rightmove.co.uk/properties/132924758#/?channel=RES_BUY,http://www.rightmove.co.uk/estate-agents/agent/Foxtons/Wembley-166331.html,HA9,,2.0,2023-06-26 08:18:21.397827,Flat,2.0,2.0,83.0,"North End Road, HA9",51.560766,-0.2730859
773,620000,5 bedroom flat for sale,"Chamberlayne Road, Kensal Rise NW10",http://www.rightmove.co.uk/properties/124130261#/?channel=RES_BUY,http://www.rightmove.co.uk/estate-agents/agent/Mile/Kensal-Rise-53010.html,NW10,,5.0,2023-06-26 08:18:21.397827,Flat,5.0,3.0,130.0,"Chamberlayne Road, Kensal Rise NW10",,
777,615000,2 bedroom flat for sale,"North End Road, Wembley Park, WEMBLEY, HA9",http://www.rightmove.co.uk/properties/135516275#/?channel=RES_BUY,http://www.rightmove.co.uk/estate-agents/agent/Foxtons/Wembley-166331.html,HA9,,2.0,2023-06-26 08:18:21.397827,Flat,2.0,2.0,73.0,"North End Road, Wembley Park",51.5602805,-0.2724132
780,615000,2 bedroom flat for sale,"Olympic Way, Wembley Park, Wembley, HA9",http://www.rightmove.co.uk/properties/135580913#/?channel=RES_BUY,http://www.rightmove.co.uk/estate-agents/agent/Foxtons/Wembley-166331.html,HA9,,2.0,2023-06-26 08:18:21.397827,Flat,2.0,2.0,81.0,"Olympic Way, Wembley Park",,
786,605000,2 bedroom flat for sale,"Staverton Road, London, NW2",http://www.rightmove.co.uk/properties/135430745#/?channel=RES_BUY,http://www.rightmove.co.uk/estate-agents/agent/Camerons-Stiff-and-Co/Willesden-Green-London-Sales-13658.html,NW2,,2.0,2023-06-26 08:18:21.397827,Flat,2.0,1.0,61.0,"Staverton Road, London",51.5450118,-0.2262153
788,600000,2 bedroom flat for sale,"Olympic Way, Wembley, Middlesex, HA9",http://www.rightmove.co.uk/properties/135891035#/?channel=RES_BUY,http://www.rightmove.co.uk/estate-agents/agent/Sail-Homes/Redcliffe-223325.html,HA9,,2.0,2023-06-26 08:18:21.397827,Flat,2.0,2.0,72.0,"Olympic Way, Wembley",51.560747,-0.2796724
791,600000,3 bedroom apartment for sale,"Park House, Manor Park Road",http://www.rightmove.co.uk/properties/135942215#/?channel=RES_BUY,http://www.rightmove.co.uk/estate-agents/agent/Mile/Kensal-Rise-53010.html,,,3.0,2023-06-26 08:18:21.397827,Apartment,3.0,3.0,90.0,"Park House, Manor Park Road",53.1806634,-0.0946105
795,600000,3 bedroom maisonette for sale,"Deacon Road, Dollis Hill, London, NW2",http://www.rightmove.co.uk/properties/128450465#/?channel=RES_BUY,http://www.rightmove.co.uk/estate-agents/agent/Foxtons/Willesden-Green-71401.html,NW2,,3.0,2023-06-26 08:18:21.397827,Maisonette,3.0,2.0,98.0,"Deacon Road, Dollis Hill",51.5506408,-0.2374396
797,600000,6 bedroom terraced house for sale,"London Road, Wembley, Middlesex, HA9",http://www.rightmove.co.uk/properties/131085572#/?channel=RES_BUY,http://www.rightmove.co.uk/estate-agents/agent/Wilkinson-and-Fox/London-246725.html,HA9,,6.0,2023-06-26 08:18:21.397827,Terraced,6.0,2.0,174.0,"London Road, Wembley",51.5510357,-0.2936599
799,600000,3 bedroom house for sale,"Lantern Close, Wembley, HA0",http://www.rightmove.co.uk/properties/134589557#/?channel=RES_BUY,http://www.rightmove.co.uk/estate-agents/agent/Foxtons/Wembley-166331.html,HA0,,3.0,2023-06-26 08:18:21.397827,House,3.0,1.0,100.0,"Lantern Close, Wembley",51.5537441,-0.3027849
801,600000,2 bedroom flat for sale,"Palermo Road, London",http://www.rightmove.co.uk/properties/134949569#/?channel=RES_BUY,http://www.rightmove.co.uk/estate-agents/agent/Parkheath/Kensal-Rise-151640.html,,,2.0,2023-06-26 08:18:21.397827,Flat,2.0,1.0,77.0,"Palermo Road, London",51.533388,-0.2339571
814,600000,2 bedroom terraced house for sale,"Clement Close, Brondesbury Park, London, NW6",http://www.rightmove.co.uk/properties/132230000#/?channel=RES_BUY,http://www.rightmove.co.uk/estate-agents/agent/Foxtons/Willesden-Green-71401.html,NW6,,2.0,2023-06-26 08:18:21.397827,Terraced,2.0,2.0,102.0,"Clement Close, Brondesbury Park",51.5423993,-0.2209401
822,600000,3 bedroom flat for sale,"Wendover Road, London",http://www.rightmove.co.uk/properties/134231162#/?channel=RES_BUY,http://www.rightmove.co.uk/estate-agents/agent/Portland-Estate-Agents/London-139901.html,,,3.0,2023-06-26 08:18:21.397827,Flat,3.0,3.0,101.0,"Wendover Road, London",51.4621992,0.0394407
826,600000,3 bedroom semi-detached house for sale,"Carlyon Road, Alperton, Wembley, HA0",http://www.rightmove.co.uk/properties/86208897#/?channel=RES_BUY,http://www.rightmove.co.uk/estate-agents/agent/Foxtons/Wembley-166331.html,HA0,,3.0,2023-06-26 08:18:21.397827,Semi-Detached,3.0,1.0,79.0,"Carlyon Road, Alperton",51.5377079,-0.2967292
831,600000,3 bedroom flat for sale,"Draycott Avenue, Kenton, Harrow, HA3",http://www.rightmove.co.uk/properties/124996397#/?channel=RES_BUY,http://www.rightmove.co.uk/estate-agents/agent/Foxtons/Harrow-108947.html,HA3,,3.0,2023-06-26 08:18:21.397827,Flat,3.0,2.0,110.0,"Draycott Avenue, Kenton",51.5819902,-0.3144661
837,600000,4 bedroom terraced house for sale,"Village Way, London, Greater London, NW10 0LL",http://www.rightmove.co.uk/properties/132855416#/?channel=RES_BUY,http://www.rightmove.co.uk/estate-agents/agent/Benjamin-Stevens/Edgware-93881.html,NW10,NW10 0LL,4.0,2023-06-26 08:18:21.397827,Terraced,4.0,2.0,106.0,"Village Way, London",51.453084,-0.0916533
843,600000,2 bedroom flat for sale,"Oxford Road, Kilburn, London, NW6",http://www.rightmove.co.uk/properties/85964289#/?channel=RES_BUY,http://www.rightmove.co.uk/estate-agents/agent/Foxtons/Maida-Vale-151658.html,NW6,,2.0,2023-06-26 08:18:21.397827,Flat,2.0,1.0,60.0,"Oxford Road, Kilburn",51.5353839,-0.1920841
845,600000,2 bedroom flat for sale,"Banister Road, Kensal Rise, London, W10",http://www.rightmove.co.uk/properties/135984716#/?channel=RES_BUY,http://www.rightmove.co.uk/estate-agents/agent/Foxtons/Maida-Vale-151658.html,W10,,2.0,2023-06-26 08:18:21.397827,Flat,2.0,2.0,75.0,"Banister Road, Kensal Rise",,
851,599950,2 bedroom flat for sale,"Harrow Road, Kensal Green W10",http://www.rightmove.co.uk/properties/132139277#/?channel=RES_BUY,http://www.rightmove.co.uk/estate-agents/agent/Parkheath/Kensal-Rise-151640.html,W10,,2.0,2023-06-26 08:18:21.397827,Flat,2.0,1.0,77.0,"Harrow Road, Kensal Green W10",51.5237717,-0.1999089
853,599950,2 bedroom flat for sale,"Bathurst Gardens, Kensal Rise, London",http://www.rightmove.co.uk/properties/86195238#/?channel=RES_BUY,http://www.rightmove.co.uk/estate-agents/agent/Warwick-Estate-Agents/London-2979.html,,,2.0,2023-06-26 08:18:21.397827,Flat,2.0,1.0,68.0,"Bathurst Gardens, Kensal Rise",51.5338494,-0.2261115962256513
858,599950,2 bedroom ground floor flat for sale,"Willesden Lane, Willesden",http://www.rightmove.co.uk/properties/123596942#/?channel=RES_BUY,http://www.rightmove.co.uk/estate-agents/agent/Empire-Estates/North-West-London-237251.html,,,2.0,2023-06-26 08:18:21.397827,Ground Flat,2.0,1.0,86.0,"Willesden Lane, Willesden",51.5474633,-0.2243857
878,585000,2 bedroom flat for sale,"Elvin Gardens, Wembley, HA9",http://www.rightmove.co.uk/properties/135170231#/?channel=RES_BUY,http://www.rightmove.co.uk/estate-agents/agent/Foxtons/Wembley-166331.html,HA9,,2.0,2023-06-26 08:18:21.397827,Flat,2.0,2.0,78.0,"Elvin Gardens, Wembley",,
885,585000,3 bedroom flat for sale,"Melrose Avenue, Willesden Green, NW2",http://www.rightmove.co.uk/properties/134424677#/?channel=RES_BUY,http://www.rightmove.co.uk/estate-agents/agent/Camerons-Stiff-and-Co/Willesden-Green-London-Sales-13658.html,NW2,,3.0,2023-06-26 08:18:21.397827,Flat,3.0,2.0,79.0,"Melrose Avenue, Willesden Green",,
886,585000,2 bedroom flat for sale,"Harlesden Road, Willesden, London, NW10",http://www.rightmove.co.uk/properties/132063749#/?channel=RES_BUY,http://www.rightmove.co.uk/estate-agents/agent/Foxtons/Willesden-Green-71401.html,NW10,,2.0,2023-06-26 08:18:21.397827,Flat,2.0,1.0,72.0,"Harlesden Road, Willesden",51.5452704,-0.2336111
897,575000,2 bedroom flat for sale,"Brondesbury Park, Brondesbury Park, London, NW2",http://www.rightmove.co.uk/properties/123309284#/?channel=RES_BUY,http://www.rightmove.co.uk/estate-agents/agent/Foxtons/Willesden-Green-71401.html,NW2,,2.0,2023-06-26 08:18:21.397827,Flat,2.0,2.0,93.0,"Brondesbury Park, Brondesbury Park",51.5405138,-0.2103359
905,575000,2 bedroom flat for sale,"Cedar Lodge, Exeter Road,  London NW2, NW2",http://www.rightmove.co.uk/properties/132406229#/?channel=RES_BUY,http://www.rightmove.co.uk/estate-agents/agent/Chancellors/Hampstead-41322.html,NW2,,2.0,2023-06-26 08:18:21.397827,Flat,2.0,2.0,80.0,"Cedar Lodge, Exeter Road",51.5474271,-0.2056810643700788
907,575000,2 bedroom flat for sale,"Brondesbury Park, Brondesbury Park, London, NW6",http://www.rightmove.co.uk/properties/85964496#/?channel=RES_BUY,http://www.rightmove.co.uk/estate-agents/agent/Foxtons/Willesden-Green-71401.html,NW6,,2.0,2023-06-26 08:18:21.397827,Flat,2.0,2.0,81.0,"Brondesbury Park, Brondesbury Park",51.5405138,-0.2103359
910,575000,2 bedroom flat for sale,"Harlesden Gardens, Willesden Junction, London",http://www.rightmove.co.uk/properties/134147027#/?channel=RES_BUY,http://www.rightmove.co.uk/estate-agents/agent/Warwick-Estate-Agents/London-2979.html,,,2.0,2023-06-26 08:18:21.397827,Flat,2.0,1.0,65.0,"Harlesden Gardens, Willesden Junction",,
911,575000,3 bedroom terraced house for sale,"Chippenham Avenue, Wembley Park, Wembley, HA9",http://www.rightmove.co.uk/properties/134589563#/?channel=RES_BUY,http://www.rightmove.co.uk/estate-agents/agent/Foxtons/Wembley-166331.html,HA9,,3.0,2023-06-26 08:18:21.397827,Terraced,3.0,2.0,109.0,"Chippenham Avenue, Wembley Park",,
919,575000,3 bedroom apartment for sale,"Howard Road, Cricklewood, NW2",http://www.rightmove.co.uk/properties/133485674#/?channel=RES_BUY,http://www.rightmove.co.uk/estate-agents/agent/ML-Estates/London-45180.html,NW2,,3.0,2023-06-26 08:18:21.397827,Apartment,3.0,2.0,97.0,"Howard Road, Cricklewood",51.5561271,-0.2166753
925,525000,2 bedroom flat for sale,"Palace Arts Way, Wembley, HA9",http://www.rightmove.co.uk/properties/133655072#/?channel=RES_BUY,http://www.rightmove.co.uk/estate-agents/agent/Foxtons/Wembley-166331.html,HA9,,2.0,2023-06-26 08:18:21.397827,Flat,2.0,2.0,63.0,"Palace Arts Way, Wembley",,
930,570000,2 bedroom flat for sale,"Prout Grove, Neasden, London, NW10",http://www.rightmove.co.uk/properties/131119907#/?channel=RES_BUY,http://www.rightmove.co.uk/estate-agents/agent/Foxtons/Willesden-Green-71401.html,NW10,,2.0,2023-06-26 08:18:21.397827,Flat,2.0,2.0,98.0,"Prout Grove, Neasden",51.5560247,-0.2500707
932,568000,2 bedroom flat for sale,"New Crescent Yard, NW10, Harlesden, London, NW10",http://www.rightmove.co.uk/properties/135197408#/?channel=RES_BUY,http://www.rightmove.co.uk/estate-agents/agent/Foxtons/Willesden-Green-71401.html,NW10,,2.0,2023-06-26 08:18:21.397827,Flat,2.0,1.0,97.0,"New Crescent Yard, NW10",,
933,565000,3 bedroom flat for sale,"Brondesbury Road, Kilburn, London, NW6",http://www.rightmove.co.uk/properties/130044104#/?channel=RES_BUY,http://www.rightmove.co.uk/estate-agents/agent/Foxtons/Maida-Vale-151658.html,NW6,,3.0,2023-06-26 08:18:21.397827,Flat,3.0,1.0,72.0,"Brondesbury Road, Kilburn",51.5376703,-0.1931941
934,565000,2 bedroom flat for sale,"Brondesbury Villas, Queens Park, NW6",http://www.rightmove.co.uk/properties/130549619#/?channel=RES_BUY,http://www.rightmove.co.uk/estate-agents/agent/Abacus-Estates/Kensal-Rise-London-63858.html,NW6,,2.0,2023-06-26 08:18:21.397827,Flat,2.0,1.0,60.0,"Brondesbury Villas, Queens Park",,
943,560000,3 bedroom town house for sale,"Chamberlayne Avenue, Wembley",http://www.rightmove.co.uk/properties/136431749#/?channel=RES_BUY,http://www.rightmove.co.uk/estate-agents/agent/Hamilton-Estates/Wembley-87784.html,,,3.0,2023-06-26 08:18:21.397827,Town House,3.0,3.0,111.0,"Chamberlayne Avenue, Wembley",51.5656895,-0.2961435
950,600000,3 bedroom house for sale,"Lantern Close, Wembley, HA0",http://www.rightmove.co.uk/properties/134589557#/?channel=RES_BUY,http://www.rightmove.co.uk/estate-agents/agent/Foxtons/Wembley-166331.html,HA0,,3.0,2023-06-26 08:18:21.397827,House,3.0,1.0,100.0,"Lantern Close, Wembley",51.5537441,-0.3027849
953,550000,2 bedroom flat for sale,"Churchill Road, London",http://www.rightmove.co.uk/properties/86149146#/?channel=RES_BUY,http://www.rightmove.co.uk/estate-agents/agent/Portland-Estate-Agents/London-139901.html,,,2.0,2023-06-26 08:18:21.397827,Flat,2.0,1.0,72.0,"Churchill Road, London",51.5486235,-0.232379
956,550000,2 bedroom flat for sale,"Grove Park, Colindale, London, NW9",http://www.rightmove.co.uk/properties/134238065#/?channel=RES_BUY,http://www.rightmove.co.uk/estate-agents/agent/Foxtons/Stanmore-250739.html,NW9,,2.0,2023-06-26 08:18:21.397827,Flat,2.0,2.0,74.0,"Grove Park, Colindale",51.58910735,-0.23110313971333468
959,550000,2 bedroom flat for sale,"Bathurst Gardens, Kensal Rise, London",http://www.rightmove.co.uk/properties/135770807#/?channel=RES_BUY,http://www.rightmove.co.uk/estate-agents/agent/Warwick-Estate-Agents/London-2979.html,,,2.0,2023-06-26 08:18:21.397827,Flat,2.0,1.0,63.0,"Bathurst Gardens, Kensal Rise",51.5338494,-0.2261115962256513
960,550000,2 bedroom flat for sale,"Teignmouth Road, London, NW2",http://www.rightmove.co.uk/properties/134422205#/?channel=RES_BUY,http://www.rightmove.co.uk/estate-agents/agent/Camerons-Stiff-and-Co/Willesden-Green-London-Sales-13658.html,NW2,,2.0,2023-06-26 08:18:21.397827,Flat,2.0,1.0,63.0,"Teignmouth Road, London",51.5501113,-0.2143516
962,550000,3 bedroom flat for sale,"Warwick Lodge, West Hampstead, London, NW2",http://www.rightmove.co.uk/properties/130467185#/?channel=RES_BUY,http://www.rightmove.co.uk/estate-agents/agent/Foxtons/West-Hampstead-137372.html,NW2,,3.0,2023-06-26 08:18:21.397827,Flat,3.0,1.0,84.0,"Warwick Lodge, West Hampstead",51.5506092,-0.20732973920387568
977,550000,2 bedroom apartment for sale,"Cavendish Road, London, NW6",http://www.rightmove.co.uk/properties/130384826#/?channel=RES_BUY,http://www.rightmove.co.uk/estate-agents/agent/Munday-Crowley-Property-Consultants/Notting-Hill-227960.html,NW6,,2.0,2023-06-26 08:18:21.397827,Apartment,2.0,1.0,63.0,"Cavendish Road, London",51.4528675,-0.1429838
981,550000,2 bedroom flat for sale,"'The Kiln', Queen's Park W9",http://www.rightmove.co.uk/properties/136523903#/?channel=RES_BUY,http://www.rightmove.co.uk/estate-agents/agent/Camerons-Stiff-and-Co/Queens-Park-238043.html,W9,,2.0,2023-06-26 08:18:21.397827,Flat,2.0,1.0,71.0,"'The Kiln', Queen's Park W9",,
985,550000,2 bedroom flat for sale,"Blenheim Gardens, Willesden Green, London, NW2",http://www.rightmove.co.uk/properties/131929163#/?channel=RES_BUY,http://www.rightmove.co.uk/estate-agents/agent/Foxtons/Willesden-Green-71401.html,NW2,,2.0,2023-06-26 08:18:21.397827,Flat,2.0,1.0,80.0,"Blenheim Gardens, Willesden Green",,
987,550000,2 bedroom flat for sale,"Viscount House, Park Royal, LONDON, NW10",http://www.rightmove.co.uk/properties/132850862#/?channel=RES_BUY,http://www.rightmove.co.uk/estate-agents/agent/Foxtons/Ealing-15969.html,NW10,,2.0,2023-06-26 08:18:21.397827,Flat,2.0,2.0,76.0,"Viscount House, Park Royal",,
988,550000,2 bedroom flat for sale,"Mapesbury Road, Mapesbury Estate, London, NW2",http://www.rightmove.co.uk/properties/134442833#/?channel=RES_BUY,http://www.rightmove.co.uk/estate-agents/agent/Foxtons/Willesden-Green-71401.html,NW2,,2.0,2023-06-26 08:18:21.397827,Flat,2.0,1.0,71.0,"Mapesbury Road, Mapesbury Estate",,
990,550000,3 bedroom flat for sale,"Odessa Road, London, NW10",http://www.rightmove.co.uk/properties/135333044#/?channel=RES_BUY,http://www.rightmove.co.uk/estate-agents/agent/Camerons-Stiff-and-Co/Willesden-Green-London-Sales-13658.html,NW10,,3.0,2023-06-26 08:18:21.397827,Flat,3.0,1.0,85.0,"Odessa Road, London",51.555337,0.0147904
991,550000,3 bedroom house for sale,"Shakespeare Drive, Harrow",http://www.rightmove.co.uk/properties/134957075#/?channel=RES_BUY,http://www.rightmove.co.uk/estate-agents/agent/Flagstones-Property-Group/Northwood-252785.html,,,3.0,2023-06-26 08:18:21.397827,House,3.0,1.0,98.0,"Shakespeare Drive, Harrow",,
998,550000,2 bedroom flat for sale,"Teignmouth Road, NW2, Mapesbury Estate, London, NW2",http://www.rightmove.co.uk/properties/134404664#/?channel=RES_BUY,http://www.rightmove.co.uk/estate-agents/agent/Foxtons/Willesden-Green-71401.html,NW2,,2.0,2023-06-26 08:18:21.397827,Flat,2.0,2.0,63.0,"Teignmouth Road, NW2",51.5497397,-0.2125391
1000,425000,2 bedroom flat for sale,"Honeywood Road, Harlesden, London, NW10",http://www.rightmove.co.uk/properties/134658875#/?channel=RES_BUY,http://www.rightmove.co.uk/estate-agents/agent/Foxtons/Willesden-Green-71401.html,NW10,,2.0,2023-06-26 08:18:21.397827,Flat,2.0,1.0,56.0,"Honeywood Road, Harlesden",51.5338443,-0.2461054
1005,549950,3 bedroom apartment for sale,"Harlesden Road, London, NW10",http://www.rightmove.co.uk/properties/131035112#/?channel=RES_BUY,http://www.rightmove.co.uk/estate-agents/agent/Camerons-Stiff-and-Co/Willesden-Green-London-Sales-13658.html,NW10,,3.0,2023-06-26 08:18:21.397827,Apartment,3.0,2.0,99.0,"Harlesden Road, London",51.5441629,-0.2358059
1010,545000,2 bedroom flat for sale,"Coverdale Road, Brondesbury, London, NW2",http://www.rightmove.co.uk/properties/128405939#/?channel=RES_BUY,http://www.rightmove.co.uk/estate-agents/agent/Foxtons/Willesden-Green-71401.html,NW2,,2.0,2023-06-26 08:18:21.397827,Flat,2.0,2.0,78.0,"Coverdale Road, Brondesbury",51.5457472,-0.2127606
1012,540000,2 bedroom apartment for sale,"Wembley Park, Wembley ",http://www.rightmove.co.uk/properties/134288525#/?channel=RES_BUY,http://www.rightmove.co.uk/estate-agents/agent/Luxury-Living-Homes-International/London-247181.html,,,2.0,2023-06-26 08:18:21.397827,Apartment,2.0,2.0,64.0,"Wembley Park, Wembley ",51.5636297,-0.2800532
1013,540000,2 bedroom flat for sale,"Palace Arts Way, Wembley Park, Wembley, HA9",http://www.rightmove.co.uk/properties/134798129#/?channel=RES_BUY,http://www.rightmove.co.uk/estate-agents/agent/Foxtons/Wembley-166331.html,HA9,,2.0,2023-06-26 08:18:21.397827,Flat,2.0,2.0,66.0,"Palace Arts Way, Wembley Park",,
1018,535000,2 bedroom flat for sale,"Willesden Lane, Willesden Green, London, NW2",http://www.rightmove.co.uk/properties/135170315#/?channel=RES_BUY,http://www.rightmove.co.uk/estate-agents/agent/Foxtons/Willesden-Green-71401.html,NW2,,2.0,2023-06-26 08:18:21.397827,Flat,2.0,2.0,66.0,"Willesden Lane, Willesden Green",51.5473983,-0.2242407
1022,535000,3 bedroom terraced house for sale,"Conduit Way, London",http://www.rightmove.co.uk/properties/133763162#/?channel=RES_BUY,http://www.rightmove.co.uk/estate-agents/agent/Churchill-and-Mathesons-Estate-Agents/Acton-90035.html,,,3.0,2023-06-26 08:18:21.397827,Terraced,3.0,1.0,78.0,"Conduit Way, London",51.5444527,-0.2706188
1026,530000,2 bedroom apartment for sale,"Beresford Avenue, London, HA0",http://www.rightmove.co.uk/properties/134365874#/?channel=RES_BUY,http://www.rightmove.co.uk/estate-agents/agent/Lixing/Shoreditch-254453.html,HA0,,2.0,2023-06-26 08:18:21.397827,Apartment,2.0,2.0,76.0,"Beresford Avenue, London",51.5412865,-0.2837148
1027,530000,2 bedroom apartment for sale,"Redwood House Empire Way, Wembley HA9",http://www.rightmove.co.uk/properties/135628418#/?channel=RES_BUY,http://www.rightmove.co.uk/estate-agents/agent/Keller-Williams-Oxygen/Maidenhead-243590.html,HA9,,2.0,2023-06-26 08:18:21.397827,Apartment,2.0,2.0,70.0,"Redwood House Empire Way, Wembley HA9",,
1039,525000,2 bedroom flat for sale,"Chatsworth Road, Brondesbury Park, London, NW2",http://www.rightmove.co.uk/properties/132557417#/?channel=RES_BUY,http://www.rightmove.co.uk/estate-agents/agent/Foxtons/Willesden-Green-71401.html,NW2,,2.0,2023-06-26 08:18:21.397827,Flat,2.0,1.0,61.0,"Chatsworth Road, Brondesbury Park",51.5481695,-0.2200398
1041,525000,3 bedroom terraced house for sale,"North Circular Road, Neasden, London, NW2",http://www.rightmove.co.uk/properties/130062929#/?channel=RES_BUY,http://www.rightmove.co.uk/estate-agents/agent/Foxtons/Willesden-Green-71401.html,NW2,,3.0,2023-06-26 08:18:21.397827,Terraced,3.0,2.0,119.0,"North Circular Road, Neasden",51.5550239,-0.25216985000000003
1045,525000,2 bedroom flat for sale,"Kilburn Lane, Queen's Park, London, W10",http://www.rightmove.co.uk/properties/133142924#/?channel=RES_BUY,http://www.rightmove.co.uk/estate-agents/agent/Foxtons/Maida-Vale-151658.html,W10,,2.0,2023-06-26 08:18:21.397827,Flat,2.0,1.0,72.0,"Kilburn Lane, Queen's Park",51.532955,-0.2034127
