Unnamed: 0,price,type,address,url,agent_url,postcode,full_postcode,number_bedrooms,search_date,property_type,bedrooms,bathrooms,size_square_meters,new_address,latitude,longitude
6,2800000,7 bedroom detached house for sale,"Eastbury Road, Northwood, Middlesex, HA6",http://www.rightmove.co.uk/properties/124649675#/?channel=RES_BUY,http://www.rightmove.co.uk/estate-agents/agent/Savills/Northwood-50225.html,HA6,,7.0,2023-06-26 21:29:53.421325,Detached,7.0,4.0,443.0,"Eastbury Road, Northwood",51.6137636,-0.4231218
24,1425000,4 bedroom detached house for sale,"Kingfisher Close, Northwood, Middlesex, HA6",http://www.rightmove.co.uk/properties/136191797#/?channel=RES_BUY,http://www.rightmove.co.uk/estate-agents/agent/Savills/Northwood-50225.html,HA6,,4.0,2023-06-26 21:29:53.421325,Detached,4.0,2.0,158.0,"Kingfisher Close, Northwood",,
39,1300000,5 bedroom detached house for sale,"Cunningham Drive, Ickenham, Uxbridge, UB10",http://www.rightmove.co.uk/properties/135287072#/?channel=RES_BUY,http://www.rightmove.co.uk/estate-agents/agent/Foxtons/Pinner-57275.html,UB10,,5.0,2023-06-26 21:29:53.421325,Detached,5.0,4.0,210.0,"Cunningham Drive, Ickenham",,
66,1150000,5 bedroom detached house for sale,"Burford Close, Ickenham, UB10",http://www.rightmove.co.uk/properties/136296980#/?channel=RES_BUY,http://www.rightmove.co.uk/estate-agents/agent/Luxury-Property-Partners/London-81384.html,UB10,,5.0,2023-06-26 21:29:53.421325,Detached,5.0,2.0,256.0,"Burford Close, Ickenham",,
67,1150000,3 bedroom detached house for sale,"Deerings Drive, Eastcote Village, Pinner, HA5",http://www.rightmove.co.uk/properties/135933035#/?channel=RES_BUY,http://www.rightmove.co.uk/estate-agents/agent/Foxtons/Pinner-57275.html,HA5,,3.0,2023-06-26 21:29:53.421325,Detached,3.0,2.0,118.0,"Deerings Drive, Eastcote Village",51.5870713,-0.4071739
72,1100000,4 bedroom detached house for sale,"Shefton Rise, Northwood, Middlesex, HA6",http://www.rightmove.co.uk/properties/131571524#/?channel=RES_BUY,http://www.rightmove.co.uk/estate-agents/agent/Savills/Northwood-50225.html,HA6,,4.0,2023-06-26 21:29:53.421325,Detached,4.0,2.0,155.0,"Shefton Rise, Northwood",51.6110072,-0.4066043
73,1100000,4 bedroom detached house for sale,"Daymer Gardens, Pinner",http://www.rightmove.co.uk/properties/135692015#/?channel=RES_BUY,http://www.rightmove.co.uk/estate-agents/agent/Andrew-Pearce/Pinner-17418.html,,,4.0,2023-06-26 21:29:53.421325,Detached,4.0,2.0,181.0,"Daymer Gardens, Pinner",,
77,1099950,4 bedroom semi-detached house for sale,"Swakeleys Drive, Uxbridge, Greater London, UB10",http://www.rightmove.co.uk/properties/133495094#/?channel=RES_BUY,http://www.rightmove.co.uk/estate-agents/agent/Bradley-and-Co-Estates-Limited/Middlesex-86032.html,UB10,,4.0,2023-06-26 21:29:53.421325,Semi-Detached,4.0,4.0,170.0,"Swakeleys Drive, Uxbridge",51.559858,-0.4580999
80,1050000,4 bedroom detached house for sale,"The Fairway, Ruislip",http://www.rightmove.co.uk/properties/136358762#/?channel=RES_BUY,http://www.rightmove.co.uk/estate-agents/agent/Lakin-and-Co/Ickenham-201140.html,,,4.0,2023-06-26 21:29:53.421325,Detached,4.0,3.0,219.0,"The Fairway, Ruislip",51.5607631,-0.3941116
93,975000,5 bedroom house for sale,"Tangmere Crescent, Uxbridge",http://www.rightmove.co.uk/properties/133917962#/?channel=RES_BUY,http://www.rightmove.co.uk/estate-agents/agent/Allday-and-Miller/Uxbridge-225662.html,,,5.0,2023-06-26 21:29:53.421325,House,5.0,4.0,206.0,"Tangmere Crescent, Uxbridge",51.5412343,-0.4689527
96,950000,4 bedroom detached house for sale,"Deerings Drive, Pinner",http://www.rightmove.co.uk/properties/136581980#/?channel=RES_BUY,http://www.rightmove.co.uk/estate-agents/agent/David-Charles/Pinner-28997.html,,,4.0,2023-06-26 21:29:53.421325,Detached,4.0,2.0,147.0,"Deerings Drive, Pinner",,
103,950000,4 bedroom detached house for sale,"St. Lawrence Drive, Pinner, Middlesex, HA5",http://www.rightmove.co.uk/properties/133769981#/?channel=RES_BUY,http://www.rightmove.co.uk/estate-agents/agent/Bradley-and-Co-Estates-Limited/Middlesex-86032.html,HA5,,4.0,2023-06-26 21:29:53.421325,Detached,4.0,2.0,117.0,"St. Lawrence Drive, Pinner",,
108,950000,3 bedroom house for sale,"St Lawrence Drive, Eastcote, Pinner, HA5",http://www.rightmove.co.uk/properties/132641753#/?channel=RES_BUY,http://www.rightmove.co.uk/estate-agents/agent/Foxtons/Pinner-57275.html,HA5,,3.0,2023-06-26 21:29:53.421325,House,3.0,1.0,112.0,"St Lawrence Drive, Eastcote",51.5861264,-0.4007178
118,925000,4 bedroom detached house for sale,"Church Road, Northwood, Middlesex, HA6",http://www.rightmove.co.uk/properties/126423047#/?channel=RES_BUY,http://www.rightmove.co.uk/estate-agents/agent/Savills/Northwood-50225.html,HA6,,4.0,2023-06-26 21:29:53.421325,Detached,4.0,2.0,135.0,"Church Road, Northwood",51.6094721,-0.4147867
121,915000,3 bedroom penthouse for sale,"Pembroke Road, Ruislip, HA4",http://www.rightmove.co.uk/properties/126996602#/?channel=RES_BUY,http://www.rightmove.co.uk/estate-agents/agent/Foxtons/Pinner-57275.html,HA4,,3.0,2023-06-26 21:29:53.421325,Penthouse,3.0,2.0,152.0,"Pembroke Road, Ruislip",51.5287033,-0.3592533
146,875000,4 bedroom town house for sale,"Jacks Lane, Harefield",http://www.rightmove.co.uk/properties/86225190#/?channel=RES_BUY,http://www.rightmove.co.uk/estate-agents/agent/Allday-and-Miller/Uxbridge-225662.html,,,4.0,2023-06-26 21:29:53.421325,Town House,4.0,2.0,167.0,"Jacks Lane, Harefield",51.601713,-0.4939881
167,840000,3 bedroom detached bungalow for sale,"Larkswood Rise, Pinner",http://www.rightmove.co.uk/properties/136581728#/?channel=RES_BUY,http://www.rightmove.co.uk/estate-agents/agent/David-Charles/Pinner-28997.html,,,3.0,2023-06-26 21:29:53.421325,Detached Bungalow,3.0,2.0,118.0,"Larkswood Rise, Pinner",,
177,825000,4 bedroom town house for sale,"Josiah Drive, Ickenham, Uxbridge",http://www.rightmove.co.uk/properties/136569434#/?channel=RES_BUY,http://www.rightmove.co.uk/estate-agents/agent/Allday-and-Miller/Uxbridge-225662.html,,,4.0,2023-06-26 21:29:53.421325,Town House,4.0,3.0,183.0,"Josiah Drive, Ickenham",,
193,800000,4 bedroom semi-detached house for sale,"Almond Close, Ruislip Gardens, Ruislip, HA4",http://www.rightmove.co.uk/properties/134959631#/?channel=RES_BUY,http://www.rightmove.co.uk/estate-agents/agent/Foxtons/Pinner-57275.html,HA4,,4.0,2023-06-26 21:29:53.421325,Semi-Detached,4.0,2.0,123.0,"Almond Close, Ruislip Gardens",,
212,800000,4 bedroom detached house for sale,"Northwood Road, Harefield, Uxbridge, Middlesex, UB9",http://www.rightmove.co.uk/properties/86176833#/?channel=RES_BUY,http://www.rightmove.co.uk/estate-agents/agent/Savills/Northwood-50225.html,UB9,,4.0,2023-06-26 21:29:53.421325,Detached,4.0,2.0,182.0,"Northwood Road, Harefield",51.6072832,-0.4690809
224,780000,2 bedroom detached house for sale,"Rushmoor Close, Pinner",http://www.rightmove.co.uk/properties/136582559#/?channel=RES_BUY,http://www.rightmove.co.uk/estate-agents/agent/David-Charles/Pinner-28997.html,,,2.0,2023-06-26 21:29:53.421325,Detached,2.0,2.0,123.0,"Rushmoor Close, Pinner",,
257,750000,3 bedroom semi-detached house for sale,"Long Drive, South Ruislip, Ruislip, HA4",http://www.rightmove.co.uk/properties/134694149#/?channel=RES_BUY,http://www.rightmove.co.uk/estate-agents/agent/Foxtons/Pinner-57275.html,HA4,,3.0,2023-06-26 21:29:53.421325,Semi-Detached,3.0,2.0,156.0,"Long Drive, South Ruislip",51.5567088,-0.3983645
272,750000,2 bedroom house for sale,"Eastcote Place, Eastcote Village, Pinner, HA5",http://www.rightmove.co.uk/properties/136371884#/?channel=RES_BUY,http://www.rightmove.co.uk/estate-agents/agent/Foxtons/Pinner-57275.html,HA5,,2.0,2023-06-26 21:29:53.421325,House,2.0,1.0,122.0,"Eastcote Place, Eastcote Village",,
282,735000,5 bedroom semi-detached house for sale,"North Way, Uxbridge",http://www.rightmove.co.uk/properties/135019376#/?channel=RES_BUY,http://www.rightmove.co.uk/estate-agents/agent/Allday-and-Miller/Uxbridge-225662.html,,,5.0,2023-06-26 21:29:53.421325,Semi-Detached,5.0,4.0,161.0,"North Way, Uxbridge",51.5484604,-0.4657802
297,725000,4 bedroom end of terrace house for sale,"Hartland Drive, Ruislip, HA4",http://www.rightmove.co.uk/properties/133586234#/?channel=RES_BUY,http://www.rightmove.co.uk/estate-agents/agent/Foxtons/Pinner-57275.html,HA4,,4.0,2023-06-26 21:29:53.421325,End of Terrace,4.0,2.0,117.0,"Hartland Drive, Ruislip",51.5607479,-0.398901
300,195000,1 bedroom ground floor flat for sale,"Auriol Drive, Hillingdon",http://www.rightmove.co.uk/properties/136519148#/?channel=RES_BUY,http://www.rightmove.co.uk/estate-agents/agent/Lakin-and-Co/Ickenham-201140.html,,,1.0,2023-06-26 21:29:53.421325,Ground Flat,1.0,1.0,50.0,"Auriol Drive, Hillingdon",51.55152,-0.4505365
318,700000,4 bedroom terraced house for sale,"Knoll Crescent, Northwood, HA6",http://www.rightmove.co.uk/properties/132083948#/?channel=RES_BUY,http://www.rightmove.co.uk/estate-agents/agent/Foxtons/Pinner-57275.html,HA6,,4.0,2023-06-26 21:29:53.421325,Terraced,4.0,2.0,130.0,"Knoll Crescent, Northwood",51.6037084,-0.4196666
338,695000,3 bedroom semi-detached house for sale,"Briarwood Drive, Northwood, Middlesex, HA6",http://www.rightmove.co.uk/properties/134957912#/?channel=RES_BUY,http://www.rightmove.co.uk/estate-agents/agent/Savills/Northwood-50225.html,HA6,,3.0,2023-06-26 21:29:53.421325,Semi-Detached,3.0,1.0,110.0,"Briarwood Drive, Northwood",51.6010636,-0.4073061
355,675000,3 bedroom semi-detached house for sale,"Woodlands Avenue, Eastcote, Ruislip, HA4",http://www.rightmove.co.uk/properties/136313117#/?channel=RES_BUY,http://www.rightmove.co.uk/estate-agents/agent/Foxtons/Pinner-57275.html,HA4,,3.0,2023-06-26 21:29:53.421325,Semi-Detached,3.0,1.0,108.0,"Woodlands Avenue, Eastcote",51.5761118,-0.3948347
364,670000,2 bedroom bungalow for sale,"Herlwyn Avenue, Ruislip, HA4",http://www.rightmove.co.uk/properties/127932020#/?channel=RES_BUY,http://www.rightmove.co.uk/estate-agents/agent/Foxtons/Pinner-57275.html,HA4,,2.0,2023-06-26 21:29:53.421325,Bungalow,2.0,1.0,100.0,"Herlwyn Avenue, Ruislip",51.5655775,-0.422783
389,650000,4 bedroom semi-detached house for sale,"North Road, West Drayton",http://www.rightmove.co.uk/properties/135871688#/?channel=RES_BUY,http://www.rightmove.co.uk/estate-agents/agent/Hiltons-Estates/Southall-242060.html,,,4.0,2023-06-26 21:29:53.421325,Semi-Detached,4.0,1.0,137.0,"North Road, West Drayton",51.5034725,-0.4615226
439,610000,3 bedroom semi-detached house for sale,"Silverdale Gardens, Hayes UB3",http://www.rightmove.co.uk/properties/132328664#/?channel=RES_BUY,http://www.rightmove.co.uk/estate-agents/agent/Move-Inn-Estates/Heston-113317.html,UB3,,3.0,2023-06-26 21:29:53.421325,Semi-Detached,3.0,2.0,118.0,"Silverdale Gardens, Hayes UB3",51.506372549999995,-0.4119305126888706
456,600000,4 bedroom semi-detached house for sale,"Botwell Common Road, Hayes, UB3",http://www.rightmove.co.uk/properties/135180140#/?channel=RES_BUY,http://www.rightmove.co.uk/estate-agents/agent/Simple-Estate-Agents/Hayes-238229.html,UB3,,4.0,2023-06-26 21:29:53.421325,Semi-Detached,4.0,2.0,122.0,"Botwell Common Road, Hayes",51.5124474,-0.4259133
518,585000,4 bedroom terraced house for sale,"Churchill Avenue, Hillingdon",http://www.rightmove.co.uk/properties/133276823#/?channel=RES_BUY,http://www.rightmove.co.uk/estate-agents/agent/Allday-and-Miller/Uxbridge-225662.html,,,4.0,2023-06-26 21:29:53.421325,Terraced,4.0,2.0,128.0,"Churchill Avenue, Hillingdon",51.5338075,-0.4507456
561,565000,3 bedroom semi-detached house for sale,"Harefield Road, Uxbridge, Greater London, UB8",http://www.rightmove.co.uk/properties/134118869#/?channel=RES_BUY,http://www.rightmove.co.uk/estate-agents/agent/McS-Mckenzie-Sakowicz-Estates/Ruislip-244001.html,UB8,,3.0,2023-06-26 21:29:53.421325,Semi-Detached,3.0,1.0,78.0,"Harefield Road, Uxbridge",51.5544782,-0.4767094
607,550000,3 bedroom semi-detached house for sale,"Coniston Gardens, Pinner, Middlesex, HA5",http://www.rightmove.co.uk/properties/135152930#/?channel=RES_BUY,http://www.rightmove.co.uk/estate-agents/agent/Maison/Pinner-81765.html,HA5,,3.0,2023-06-26 21:29:53.421325,Semi-Detached,3.0,1.0,78.0,"Coniston Gardens, Pinner",,
612,550000,3 bedroom end of terrace house for sale,"Camden Avenue, Hayes UB4",http://www.rightmove.co.uk/properties/135232010#/?channel=RES_BUY,http://www.rightmove.co.uk/estate-agents/agent/Move-Inn-Estates/Heston-113317.html,UB4,,3.0,2023-06-26 21:29:53.421325,End of Terrace,3.0,1.0,107.0,"Camden Avenue, Hayes UB4",,
622,549995,2 bedroom terraced house for sale,"High Street, Northwood",http://www.rightmove.co.uk/properties/134695328#/?channel=RES_BUY,http://www.rightmove.co.uk/estate-agents/agent/Ashley-King/Docklands-71212.html,,,2.0,2023-06-26 21:29:53.421325,Terraced,2.0,1.0,72.0,"High Street, Northwood",51.6069686,-0.4163632
633,545000,3 bedroom semi-detached house for sale,"Whitby Road, Ruislip",http://www.rightmove.co.uk/properties/135315560#/?channel=RES_BUY,http://www.rightmove.co.uk/estate-agents/agent/Parkfields-Estates/Southall-90161.html,,,3.0,2023-06-26 21:29:53.421325,Semi-Detached,3.0,1.0,86.0,"Whitby Road, Ruislip",51.5675916,-0.3968915
652,535000,4 bedroom terraced house for sale,"Carlyon Road, Hayes, UB4",http://www.rightmove.co.uk/properties/135431156#/?channel=RES_BUY,http://www.rightmove.co.uk/estate-agents/agent/DBK-Estate-Agents/Southall-260879.html,UB4,,4.0,2023-06-26 21:29:53.421325,Terraced,4.0,2.0,141.0,"Carlyon Road, Hayes",,
668,525000,2 bedroom semi-detached house for sale,"Dyke Cottages, Rickmansworth Road, Northwood, Middlesex, HA6",http://www.rightmove.co.uk/properties/86056899#/?channel=RES_BUY,http://www.rightmove.co.uk/estate-agents/agent/Savills/Northwood-50225.html,HA6,,2.0,2023-06-26 21:29:53.421325,Semi-Detached,2.0,1.0,58.0,"Dyke Cottages, Rickmansworth Road",,
700,420000,2 bedroom flat for sale,"Ruislip, Hillingdon, HA4",http://www.rightmove.co.uk/properties/86167647#/?channel=RES_BUY,http://www.rightmove.co.uk/estate-agents/agent/Chancellors/Northwood-35960.html,HA4,,2.0,2023-06-26 21:29:53.421325,Flat,2.0,2.0,73.0,"Ruislip, Hillingdon",51.5714026,-0.4213375
709,510000,3 bedroom semi-detached house for sale,"North Hyde Road, Hayes UB3",http://www.rightmove.co.uk/properties/125325428#/?channel=RES_BUY,http://www.rightmove.co.uk/estate-agents/agent/Move-Inn-Estates/Heston-113317.html,UB3,,3.0,2023-06-26 21:29:53.421325,Semi-Detached,3.0,2.0,101.0,"North Hyde Road, Hayes UB3",51.5025197,-0.4299279
738,500000,2 bedroom terraced house for sale,"Chiltern View Road, Uxbridge",http://www.rightmove.co.uk/properties/136024586#/?channel=RES_BUY,http://www.rightmove.co.uk/estate-agents/agent/Allday-and-Miller/Uxbridge-225662.html,,,2.0,2023-06-26 21:29:53.421325,Terraced,2.0,1.0,95.0,"Chiltern View Road, Uxbridge",51.5379887,-0.4816547
831,460000,3 bedroom terraced house for sale,"Dellside, UB9",http://www.rightmove.co.uk/properties/134139374#/?channel=RES_BUY,http://www.rightmove.co.uk/estate-agents/agent/McS-Mckenzie-Sakowicz-Estates/Ruislip-244001.html,UB9,,3.0,2023-06-26 21:29:53.421325,Terraced,3.0,1.0,68.0,"Dellside, UB9",,
848,450000,2 bedroom maisonette for sale,"Tolcarne Drive, Pinner, HA5",http://www.rightmove.co.uk/properties/133002053#/?channel=RES_BUY,http://www.rightmove.co.uk/estate-agents/agent/Foxtons/Pinner-57275.html,HA5,,2.0,2023-06-26 21:29:53.421325,Maisonette,2.0,1.0,80.0,"Tolcarne Drive, Pinner",51.59691875,-0.3997691305234566
863,450000,3 bedroom end of terrace house for sale,"Greatfields Drive, Hillingdon UB8",http://www.rightmove.co.uk/properties/129653099#/?channel=RES_BUY,http://www.rightmove.co.uk/estate-agents/agent/Move-Inn-Estates-Iver/Iver-241205.html,UB8,,3.0,2023-06-26 21:29:53.421325,End of Terrace,3.0,2.0,76.0,"Greatfields Drive, Hillingdon UB8",,
880,440000,4 bedroom end of terrace house for sale,"Dell Road, West Drayton",http://www.rightmove.co.uk/properties/134567201#/?channel=RES_BUY,http://www.rightmove.co.uk/estate-agents/agent/Parkfields-Estates/Southall-90161.html,,,4.0,2023-06-26 21:29:53.421325,End of Terrace,4.0,1.0,63.0,"Dell Road, West Drayton",51.5005567,-0.4661693
931,425000,2 bedroom apartment for sale,"Hercies Road, Uxbridge",http://www.rightmove.co.uk/properties/134192414#/?channel=RES_BUY,http://www.rightmove.co.uk/estate-agents/agent/Allday-and-Miller/Uxbridge-225662.html,,,2.0,2023-06-26 21:29:53.421325,Apartment,2.0,2.0,86.0,"Hercies Road, Uxbridge",51.5522262,-0.4495966
934,420000,2 bedroom flat for sale,"Ruislip, Hillingdon, HA4",http://www.rightmove.co.uk/properties/86167647#/?channel=RES_BUY,http://www.rightmove.co.uk/estate-agents/agent/Chancellors/Northwood-35960.html,HA4,,2.0,2023-06-26 21:29:53.421325,Flat,2.0,2.0,73.0,"Ruislip, Hillingdon",51.5714026,-0.4213375
935,420000,2 bedroom flat for sale,"Reservoir Road, Ruislip, HA4",http://www.rightmove.co.uk/properties/131314499#/?channel=RES_BUY,http://www.rightmove.co.uk/estate-agents/agent/Foxtons/Pinner-57275.html,HA4,,2.0,2023-06-26 21:29:53.421325,Flat,2.0,2.0,71.0,"Reservoir Road, Ruislip",51.5914714,-0.4331064
985,400000,2 bedroom terraced house for sale,"Dagnall Crescent, Uxbridge",http://www.rightmove.co.uk/properties/135748442#/?channel=RES_BUY,http://www.rightmove.co.uk/estate-agents/agent/Allday-and-Miller/Uxbridge-225662.html,,,2.0,2023-06-26 21:29:53.421325,Terraced,2.0,1.0,66.0,"Dagnall Crescent, Uxbridge",51.5259709,-0.48442
990,400000,3 bedroom flat for sale,"Grangedale Close, Northwood, HA6",http://www.rightmove.co.uk/properties/133599428#/?channel=RES_BUY,http://www.rightmove.co.uk/estate-agents/agent/Foxtons/Pinner-57275.html,HA6,,3.0,2023-06-26 21:29:53.421325,Flat,3.0,1.0,78.0,"Grangedale Close, Northwood",51.6072176,-0.4265992
1004,395000,2 bedroom apartment for sale,"Waterloo Road, Uxbridge",http://www.rightmove.co.uk/properties/135667685#/?channel=RES_BUY,http://www.rightmove.co.uk/estate-agents/agent/Hiltons-Estates/Southall-242060.html,,,2.0,2023-06-26 21:29:53.421325,Apartment,2.0,1.0,62.0,"Waterloo Road, Uxbridge",51.5393711,-0.4867073
1011,390000,2 bedroom terraced house for sale,"Northwood, Middlesex, HA6",http://www.rightmove.co.uk/properties/134570393#/?channel=RES_BUY,http://www.rightmove.co.uk/estate-agents/agent/Chancellors/Northwood-35960.html,HA6,,2.0,2023-06-26 21:29:53.421325,Terraced,2.0,1.0,91.0,"Northwood, Middlesex",51.59445785,-0.4171326012716364
1024,385000,2 bedroom terraced house for sale,"Peerless Drive, Harefield",http://www.rightmove.co.uk/properties/134384018#/?channel=RES_BUY,http://www.rightmove.co.uk/estate-agents/agent/Allday-and-Miller/Uxbridge-225662.html,,,2.0,2023-06-26 21:29:53.421325,Terraced,2.0,1.0,53.0,"Peerless Drive, Harefield",51.5903727,-0.4855254
1030,375500,2 bedroom maisonette for sale,"Kaduna Close, Pinner, Middlesex, HA5",http://www.rightmove.co.uk/properties/133199228#/?channel=RES_BUY,http://www.rightmove.co.uk/estate-agents/agent/Bradley-and-Co-Estates-Limited/Middlesex-86032.html,HA5,,2.0,2023-06-26 21:29:53.421325,Maisonette,2.0,1.0,72.0,"Kaduna Close, Pinner",,
1046,375000,2 bedroom apartment for sale,"Oleander House, Uxbridge",http://www.rightmove.co.uk/properties/130744100#/?channel=RES_BUY,http://www.rightmove.co.uk/estate-agents/agent/Allday-and-Miller/Uxbridge-225662.html,,,2.0,2023-06-26 21:29:53.421325,Apartment,2.0,2.0,77.0,"Oleander House, Uxbridge",,
